[
  {
    "id": 1,
    "nameZh": "臺北市政府警察局",
    "nameEn": "Taipei City Police Department",
    "address": "臺北市中正區延平南路96號",
    "phone": "02 23313561",
    "latitude": 25.043889997017633,
    "longitude": 121.50983099992246
  },
  {
    "id": 2,
    "nameZh": "中山分局",
    "nameEn": "Zhongshan Police Precinct",
    "address": "臺北市中山區中山北路2段1號",
    "phone": "02 25412491",
    "latitude": 25.052608999350614,
    "longitude": 121.52283100410686
  },
  {
    "id": 3,
    "nameZh": "中山一派出所",
    "nameEn": "Zhongshan First Police Station",
    "address": "臺北市中山區中山北路1段110號",
    "phone": "02 25519321",
    "latitude": 25.050007002757066,
    "longitude": 121.52146100252584
  },
  {
    "id": 4,
    "nameZh": "中山二派出所",
    "nameEn": "Zhongshan Second Police Station",
    "address": "臺北市中山區中山北路2段59巷21號",
    "phone": "02 25517771",
    "latitude": 25.055916995040832,
    "longitude": 121.52393999620888
  },
  {
    "id": 5,
    "nameZh": "圓山派出所",
    "nameEn": "Yuanshan Police Staticn",
    "address": "臺北市中山區中山北路3段62號",
    "phone": "02 25969433",
    "latitude": 25.072734994820312,
    "longitude": 121.52375200436494
  },
  {
    "id": 6,
    "nameZh": "長春路派出所",
    "nameEn": "Changchun Rd. Police Station",
    "address": "臺北市中山區長春路206號",
    "phone": "02 25062289",
    "latitude": 25.0546579999746,
    "longitude": 121.53604700462768
  },
  {
    "id": 7,
    "nameZh": "長安東路派出所",
    "nameEn": "Changan E. Rd. Police Station",
    "address": "臺北市中山區長安東路2段165號",
    "phone": "02 27735207",
    "latitude": 25.048430003281368,
    "longitude": 121.54057000027034
  },
  {
    "id": 8,
    "nameZh": "民權一派出所",
    "nameEn": "Minquan First Police Station",
    "address": "臺北市中山區新生北路2段127之1號",
    "phone": "02 25314672",
    "latitude": 25.059909003536376,
    "longitude": 121.52797900398213
  },
  {
    "id": 9,
    "nameZh": "建國路派出所",
    "nameEn": "Jianguo Police Station",
    "address": "臺北市中山區民族東路284號",
    "phone": "02 25099774",
    "latitude": 25.06801899851253,
    "longitude": 121.53601600155322
  },
  {
    "id": 10,
    "nameZh": "大直派出所",
    "nameEn": "Dazhi Police Station",
    "address": "臺北市中山區北安路456號",
    "phone": "02 25332984",
    "latitude": 25.079549002315517,
    "longitude": 121.54411199982783
  },
  {
    "id": 11,
    "nameZh": "大安分局",
    "nameEn": "Daan Police Precinct",
    "address": "臺北市大安區仁愛路3段2號",
    "phone": "02 23259850",
    "latitude": 25.037849001313507,
    "longitude": 121.53316199659544
  },
  {
    "id": 12,
    "nameZh": "羅斯福路派出所",
    "nameEn": "Roosevelt Rd. Police Station",
    "address": "臺北市大安區羅斯福路4段113巷13號",
    "phone": "02 27355761",
    "latitude": 25.011183996328757,
    "longitude": 121.53883200208207
  },
  {
    "id": 13,
    "nameZh": "臥龍街派出所",
    "nameEn": "Wolong St. Police Station",
    "address": "臺北市大安區臥龍街185號",
    "phone": "02 27334439",
    "latitude": 25.01794499866025,
    "longitude": 121.55192899562869
  },
  {
    "id": 14,
    "nameZh": "敦化南路派出所",
    "nameEn": "Dunhua S. Rd. Police Station",
    "address": "臺北市大安區復興南路1段219之1號",
    "phone": "02 27710400",
    "latitude": 25.038957996530772,
    "longitude": 121.54392700261054
  },
  {
    "id": 15,
    "nameZh": "安和路派出所",
    "nameEn": "Anhe Rd. Police Station",
    "address": "臺北市大安區信義路4段216號",
    "phone": "02 27025232",
    "latitude": 25.032972002512647,
    "longitude": 121.55210700357632
  },
  {
    "id": 16,
    "nameZh": "瑞安街派出所",
    "nameEn": "Ruian St. Police Station",
    "address": "臺北市大安區瑞安街23巷17號",
    "phone": "02 27054164",
    "latitude": 25.031137000767192,
    "longitude": 121.54499400013603
  },
  {
    "id": 17,
    "nameZh": "和平東路派出所",
    "nameEn": "Heping E. Rd. Police Station",
    "address": "臺北市大安區和平東路1段143號",
    "phone": "02 23218073",
    "latitude": 25.02663099731028,
    "longitude": 121.53051399953706
  },
  {
    "id": 18,
    "nameZh": "新生南路派出所",
    "nameEn": "Xinsheng S. Rd. Police Station",
    "address": "臺北市大安區仁愛路3段18號",
    "phone": "02 23258611",
    "latitude": 25.03776900352992,
    "longitude": 121.53405699572059
  },
  {
    "id": 19,
    "nameZh": "中正一分局",
    "nameEn": "Zhongzheng First Police Precinct",
    "address": "臺北市中正區公園路15號",
    "phone": "02 23716426",
    "latitude": 25.045206001752113,
    "longitude": 121.51730899638582
  },
  {
    "id": 20,
    "nameZh": "忠孝西路派出所",
    "nameEn": "Zhongxiao W. Rd. Police Station",
    "address": "臺北市中正區公園路15號",
    "phone": "02 23142722",
    "latitude": 25.045206001752113,
    "longitude": 121.51730899638582
  },
  {
    "id": 21,
    "nameZh": "忠孝東路派出所",
    "nameEn": "Zhongxiao E. Rd. Police Station",
    "address": "臺北市中正區忠孝東路2段10號",
    "phone": "02 23218656",
    "latitude": 25.043668996294166,
    "longitude": 121.52716400459443
  },
  {
    "id": 22,
    "nameZh": "仁愛路派出所",
    "nameEn": "Renai Rd. Police Station",
    "address": "臺北市中正區仁愛路1段19號",
    "phone": "02 23212067",
    "latitude": 25.038980998571375,
    "longitude": 121.52249199703812
  },
  {
    "id": 23,
    "nameZh": "介壽路派出所",
    "nameEn": "Jieshou Rd. Police Station",
    "address": "臺北市中正區公園路54號",
    "phone": "02 23113081",
    "latitude": 25.040001997723216,
    "longitude": 121.51550199861732
  },
  {
    "id": 24,
    "nameZh": "博愛路派出所",
    "nameEn": "Boai Rd. Police Station",
    "address": "臺北市中正區博愛路119號",
    "phone": "02 23142724",
    "latitude": 25.041732998820464,
    "longitude": 121.51157900060261
  },
  {
    "id": 25,
    "nameZh": "中正二分局",
    "nameEn": "Zhongzheng Second Police Precinct",
    "address": "臺北市中正區南海路35號",
    "phone": "02 23751825",
    "latitude": 25.03199800293161,
    "longitude": 121.51403300459172
  },
  {
    "id": 26,
    "nameZh": "南海路派出所",
    "nameEn": "Nanhai Rd. Police Station",
    "address": "臺北市中正區南海路35號",
    "phone": "02 23752835",
    "latitude": 25.03199800293161,
    "longitude": 121.51403300459172
  },
  {
    "id": 27,
    "nameZh": "思源街派出所",
    "nameEn": "Siyuan St. Police Station",
    "address": "臺北市中正區汀州路3段72號",
    "phone": "02 23650844",
    "latitude": 25.01519699947103,
    "longitude": 121.53192400174457
  },
  {
    "id": 28,
    "nameZh": "南昌路派出所",
    "nameEn": "Nanchang Rd. Police Station",
    "address": "臺北市中正區龍福里南昌路1段7號",
    "phone": "02 23218148",
    "latitude": 25.032321998108873,
    "longitude": 121.5165240041479
  },
  {
    "id": 29,
    "nameZh": "泉州街派出所",
    "nameEn": "Quanzhou St. Police Station",
    "address": "臺北市中正區中華路2段503號",
    "phone": "02 23039915",
    "latitude": 25.024248998921202,
    "longitude": 121.51219499685321
  },
  {
    "id": 30,
    "nameZh": "廈門街派出所",
    "nameEn": "Xiamen St. Police Station",
    "address": "臺北市中正區螢圃里廈門街43號",
    "phone": "02 23684427",
    "latitude": 25.02583399820149,
    "longitude": 121.51770299893808
  },
  {
    "id": 31,
    "nameZh": "文山二分局",
    "nameEn": "Wenshan Second Police Precinct",
    "address": "臺北市文山區景中街2號",
    "phone": "02 29313843",
    "latitude": 24.99276299970434,
    "longitude": 121.5410979985537
  },
  {
    "id": 32,
    "nameZh": "萬盛派出所",
    "nameEn": "Wansheng Police Station",
    "address": "臺北市文山區羅斯福路5段151號",
    "phone": "02 29312502",
    "latitude": 25.003900003541826,
    "longitude": 121.53892700286123
  },
  {
    "id": 33,
    "nameZh": "景美派出所",
    "nameEn": "Jingmei Police Station",
    "address": "臺北市文山區景中街2號",
    "phone": "02 29313459",
    "latitude": 24.99276299970434,
    "longitude": 121.5410979985537
  },
  {
    "id": 34,
    "nameZh": "興隆派出所",
    "nameEn": "Xinglong Police Station",
    "address": "臺北市文山區興隆路2段156號",
    "phone": "02 29313842",
    "latitude": 25.001533001100157,
    "longitude": 121.55118999879151
  },
  {
    "id": 35,
    "nameZh": "文山一分局",
    "nameEn": "Wenshan First Police Precinct",
    "address": "臺北市文山區木柵路2段202號",
    "phone": "02 29395734",
    "latitude": 24.988750001552685,
    "longitude": 121.5637139985135
  },
  {
    "id": 36,
    "nameZh": "木新派出所",
    "nameEn": "Muxin Police Station",
    "address": "臺北市文山區恆光街45號",
    "phone": "02 29372488",
    "latitude": 24.982492996695907,
    "longitude": 121.56730800389907
  },
  {
    "id": 37,
    "nameZh": "指南派出所",
    "nameEn": "Zhinan Police Station",
    "address": "臺北市文山區指南路2段177號",
    "phone": "02 29382712",
    "latitude": 24.987313996470256,
    "longitude": 121.57793300482535
  },
  {
    "id": 38,
    "nameZh": "萬芳派出所",
    "nameEn": "Wanfang Police Station",
    "address": "臺北市文山區萬芳里萬美街1段50號",
    "phone": "02 22391753",
    "latitude": 25.002266995670983,
    "longitude": 121.56681500371693
  },
  {
    "id": 39,
    "nameZh": "復興派出所",
    "nameEn": "Fuxing Police Station",
    "address": "臺北市文山區木柵路1段54號",
    "phone": "02 22367140",
    "latitude": 24.986813002106125,
    "longitude": 121.54701400214901
  },
  {
    "id": 40,
    "nameZh": "木柵派出所",
    "nameEn": "Muzha Police Station",
    "address": "臺北市文山區木柵路2段202號",
    "phone": "02 29397141",
    "latitude": 24.988750001552685,
    "longitude": 121.5637139985135
  },
  {
    "id": 41,
    "nameZh": "南港分局",
    "nameEn": "Nangang Police Precinct",
    "address": "臺北市南港區向陽路150號",
    "phone": "02 27839110",
    "latitude": 25.055225995306888,
    "longitude": 121.59489700093032
  },
  {
    "id": 42,
    "nameZh": "玉成派出所",
    "nameEn": "Yucheng  Police Station",
    "address": "臺北市南港區向陽路150號",
    "phone": "02 27886958",
    "latitude": 25.055225995306888,
    "longitude": 121.59489700093032
  },
  {
    "id": 43,
    "nameZh": "舊莊派出所",
    "nameEn": "Jiuzhuang Police Station",
    "address": "臺北市南港區舊莊街1段213號",
    "phone": "02 27822492",
    "latitude": 25.03849099557733,
    "longitude": 121.62253299839188
  },
  {
    "id": 44,
    "nameZh": "同德派出所",
    "nameEn": "Tongde Police Station",
    "address": "臺北市南港區同德路83號",
    "phone": "02 27867201",
    "latitude": 25.046074997355525,
    "longitude": 121.58562700288314
  },
  {
    "id": 45,
    "nameZh": "南港派出所",
    "nameEn": "Nangang Police Station",
    "address": "臺北市南港區興中路12巷2號",
    "phone": "02 27830476",
    "latitude": 25.05494800202163,
    "longitude": 121.60716999656125
  },
  {
    "id": 46,
    "nameZh": "內湖分局",
    "nameEn": "Neihu Police Precinct",
    "address": "臺北市內湖區民權東路6段101號",
    "phone": "02 27900505",
    "latitude": 25.069275002477806,
    "longitude": 121.589600000925
  },
  {
    "id": 47,
    "nameZh": "康樂派出所",
    "nameEn": "Kangle Police Station",
    "address": "臺北市內湖區康樂街110巷16弄20號",
    "phone": "02 26342237",
    "latitude": 25.070374001607885,
    "longitude": 121.61838800484803
  },
  {
    "id": 48,
    "nameZh": "東湖派出所",
    "nameEn": "Donghu Police Station",
    "address": "臺北市內湖區五分街10號",
    "phone": "02 26313350",
    "latitude": 25.067446996619292,
    "longitude": 121.61299900346036
  },
  {
    "id": 49,
    "nameZh": "文德派出所",
    "nameEn": "Wende Police Station",
    "address": "臺北市內湖區民權東路6段26號",
    "phone": "02 27944946",
    "latitude": 25.066614001092077,
    "longitude": 121.57893700177856
  },
  {
    "id": 50,
    "nameZh": "大湖派出所",
    "nameEn": "Dahu Police Station",
    "address": "臺北市內湖區成功路5段1號",
    "phone": "02 27909521",
    "latitude": 25.08411600163029,
    "longitude": 121.60137300430637
  },
  {
    "id": 51,
    "nameZh": "港墘派出所",
    "nameEn": "Gangquian Police Station",
    "address": "臺北市內湖區內湖路1段550號",
    "phone": "02 87518690",
    "latitude": 25.078810996109898,
    "longitude": 121.57669699875153
  },
  {
    "id": 52,
    "nameZh": "西湖派出所",
    "nameEn": "Xihu Police Station",
    "address": "臺北市內湖區瑞光路515號",
    "phone": "02 27987505",
    "latitude": 25.07913799713489,
    "longitude": 121.56933399802078
  },
  {
    "id": 53,
    "nameZh": "潭美派出所",
    "nameEn": "Tanmei Police Station",
    "address": "臺北市內湖區新明路324號",
    "phone": "02 27917233",
    "latitude": 25.055305996671244,
    "longitude": 121.58159800200357
  },
  {
    "id": 54,
    "nameZh": "內湖派出所",
    "nameEn": "Neihu Police Station",
    "address": "臺北市內湖區內湖路2段261號",
    "phone": "02 27931031",
    "latitude": 25.082095995935667,
    "longitude": 121.59015100076833
  },
  {
    "id": 55,
    "nameZh": "康寧派出所",
    "nameEn": "Kangning Police Station",
    "address": "臺北市內湖區金湖路83號",
    "phone": "02 87920061",
    "latitude": 25.08118500225809,
    "longitude": 121.59753299992344
  },
  {
    "id": 56,
    "nameZh": "北投分局",
    "nameEn": "Beitou Police Precinct",
    "address": "臺北市北投區中央北路1段1號",
    "phone": "02 28914521",
    "latitude": 25.133388998179147,
    "longitude": 121.50133799651105
  },
  {
    "id": 57,
    "nameZh": "永明派出所",
    "nameEn": "Yongming Police Station",
    "address": "臺北市北投區石牌路2段10號",
    "phone": "02 28213110",
    "latitude": 25.117852296111238,
    "longitude": 121.51656371787358
  },
  {
    "id": 58,
    "nameZh": "竹子湖派出所",
    "nameEn": "Zhuzihu Police Station",
    "address": "臺北市北投區竹子湖路16號",
    "phone": "02 28616082",
    "latitude": 25.167487001200595,
    "longitude": 121.54025500259809
  },
  {
    "id": 59,
    "nameZh": "公園派出所",
    "nameEn": "Gongyuan Police Station",
    "address": "臺北市北投區紗帽路110號",
    "phone": "02 28610145",
    "latitude": 25.14881599613935,
    "longitude": 121.54861199687635
  },
  {
    "id": 60,
    "nameZh": "關渡派出所",
    "nameEn": "Guandu Police Station",
    "address": "臺北市北投區大度路3段305號",
    "phone": "02 28583864",
    "latitude": 25.122989996716566,
    "longitude": 121.4659669975539
  },
  {
    "id": 61,
    "nameZh": "石牌派出所",
    "nameEn": "Shipai Police Station",
    "address": "臺北市北投區文林北路296號",
    "phone": "02 28231513",
    "latitude": 25.10991099486103,
    "longitude": 121.51251899508354
  },
  {
    "id": 62,
    "nameZh": "奇岩派出所",
    "nameEn": "Qiyan Police Station",
    "address": "臺北市北投區公館路209巷11號",
    "phone": "02 28954410",
    "latitude": 25.127661996376283,
    "longitude": 121.50795300185031
  },
  {
    "id": 63,
    "nameZh": "大屯派出所",
    "nameEn": "Datun Police Station",
    "address": "臺北市北投區中和街534號",
    "phone": "02 28913971",
    "latitude": 25.145564997363156,
    "longitude": 121.49326700105337
  },
  {
    "id": 64,
    "nameZh": "光明派出所",
    "nameEn": "Guangming Police Station",
    "address": "臺北市北投區泉源路14號",
    "phone": "02 28911647",
    "latitude": 25.13734899873287,
    "longitude": 121.5042230040842
  },
  {
    "id": 65,
    "nameZh": "長安派出所",
    "nameEn": "Changan Police Station",
    "address": "臺北市北投區中央北路1段1號",
    "phone": "02 28912029",
    "latitude": 25.133388998179147,
    "longitude": 121.50133799651105
  },
  {
    "id": 66,
    "nameZh": "士林分局",
    "nameEn": "Shilin Police Precinct",
    "address": "臺北市士林區文林路235號",
    "phone": "02 28813856",
    "latitude": 25.09048500007192,
    "longitude": 121.52670199750938
  },
  {
    "id": 67,
    "nameZh": "翠山派出所",
    "nameEn": "Cuishan Police Station",
    "address": "臺北市士林區中社路1段56號",
    "phone": "02 28411423",
    "latitude": 25.10812900018487,
    "longitude": 121.5602729977819
  },
  {
    "id": 68,
    "nameZh": "後港派出所",
    "nameEn": "Hougang Police Station",
    "address": "臺北市士林區福港街151號",
    "phone": "02 28829373",
    "latitude": 25.0874190007598,
    "longitude": 121.51805200485562
  },
  {
    "id": 69,
    "nameZh": "山仔后派出所",
    "nameEn": "Shanzaihou Police Station",
    "address": "臺北市士林區格致路39號",
    "phone": "02 28611295",
    "latitude": 25.137282996466165,
    "longitude": 121.54635000025253
  },
  {
    "id": 70,
    "nameZh": "永福派出所",
    "nameEn": "Yongfu Police Station",
    "address": "臺北市士林區仰德大道2段2巷5號",
    "phone": "02 28616353",
    "latitude": 25.101806002174815,
    "longitude": 121.54047400359275
  },
  {
    "id": 71,
    "nameZh": "溪山派出所",
    "nameEn": "Xishan Police Station",
    "address": "臺北市士林區至善路3段263號",
    "phone": "02 28411110",
    "latitude": 25.119713998193358,
    "longitude": 121.58455699530738
  },
  {
    "id": 72,
    "nameZh": "芝山岩派出所",
    "nameEn": "Zhishanyan Police Station",
    "address": "臺北市士林區仰德大道1段16號",
    "phone": "02 28813194",
    "latitude": 25.10112999529951,
    "longitude": 121.53787600234381
  },
  {
    "id": 73,
    "nameZh": "天母派出所",
    "nameEn": "Tianmu Police Station",
    "address": "臺北市士林區中山北路7段192號",
    "phone": "02 28714110",
    "latitude": 25.12510799807166,
    "longitude": 121.53296300234403
  },
  {
    "id": 74,
    "nameZh": "蘭雅派出所",
    "nameEn": "Lanya Police Station",
    "address": "臺北市士林區中山北路6段153號1樓",
    "phone": "02 28315001",
    "latitude": 25.10665999819265,
    "longitude": 121.52474199769959
  },
  {
    "id": 75,
    "nameZh": "社子派出所",
    "nameEn": "Shezi Police Station",
    "address": "臺北市士林區延平北路6段237號",
    "phone": "02 28122720",
    "latitude": 25.08921699659099,
    "longitude": 121.50459199520613
  },
  {
    "id": 76,
    "nameZh": "文林派出所",
    "nameEn": "Wenlin Police Station",
    "address": "臺北市士林區文林路235號",
    "phone": "02 28812211",
    "latitude": 25.09048500007192,
    "longitude": 121.52670199750938
  },
  {
    "id": 77,
    "nameZh": "信義分局",
    "nameEn": "Xinyi Police Precinct",
    "address": "臺北市信義區信義路5段17號",
    "phone": "02 27234739",
    "latitude": 25.033168995337405,
    "longitude": 121.56770699816455
  },
  {
    "id": 78,
    "nameZh": "六張犁派出所",
    "nameEn": "Liuzhangli Police Station",
    "address": "臺北市信義區嘉興街301號",
    "phone": "02 27355068",
    "latitude": 25.023673998892164,
    "longitude": 121.55519899586568
  },
  {
    "id": 79,
    "nameZh": "吳興街派出所",
    "nameEn": "Wuxingjie St. Police Station",
    "address": "臺北市信義區吳興街262號",
    "phone": "02 27398997",
    "latitude": 25.026570999552263,
    "longitude": 121.56399799660946
  },
  {
    "id": 80,
    "nameZh": "福德街派出所",
    "nameEn": "Fudejie St. Police Station",
    "address": "臺北市信義區福德街86號",
    "phone": "02 27273424",
    "latitude": 25.037725003323988,
    "longitude": 121.5819730008506
  },
  {
    "id": 81,
    "nameZh": "五分埔派出所",
    "nameEn": "Wufenpu Police Station",
    "address": "臺北市信義區永吉路333號",
    "phone": "02 27653349",
    "latitude": 25.045680999623766,
    "longitude": 121.57586399642508
  },
  {
    "id": 82,
    "nameZh": "三張犁派出所",
    "nameEn": "Sanchangli Police Station",
    "address": "臺北市信義區信義路5段17號",
    "phone": "02 27295561",
    "latitude": 25.033168995337405,
    "longitude": 121.56770699816455
  },
  {
    "id": 83,
    "nameZh": "松山分局",
    "nameEn": "Songshan Police Precinct",
    "address": "臺北市南京東路3段340號",
    "phone": "02 27782081",
    "latitude": 25.051320994973384,
    "longitude": 121.5479669981882
  },
  {
    "id": 84,
    "nameZh": "民有派出所",
    "nameEn": "Minyou Police Station",
    "address": "臺北市松山區民權東路3段162號",
    "phone": "02 27123638",
    "latitude": 25.061765001592544,
    "longitude": 121.54807700453237
  },
  {
    "id": 85,
    "nameZh": "三民派出所",
    "nameEn": "Sanmin Police Station",
    "address": "臺北市松山區三民里民生東路5段163之1號",
    "phone": "02 27621708",
    "latitude": 25.05928699779586,
    "longitude": 121.56290699863474
  },
  {
    "id": 86,
    "nameZh": "東社派出所",
    "nameEn": "Dongshe Police Station",
    "address": "臺北市松山區精忠里敦化北路199巷5之1號",
    "phone": "02 27135253",
    "latitude": 25.05674199829261,
    "longitude": 121.5514130013662
  },
  {
    "id": 87,
    "nameZh": "中崙派出所",
    "nameEn": "Zhonglun Police Station",
    "address": "臺北市松山區長安東路2段229之1號",
    "phone": "02 27711239",
    "latitude": 25.048368995128705,
    "longitude": 121.54516900437606
  },
  {
    "id": 88,
    "nameZh": "松山派出所",
    "nameEn": "Songshan Police Station",
    "address": "臺北市松山區八德路4段692號",
    "phone": "02 27670446",
    "latitude": 25.049861994944308,
    "longitude": 121.57725099557317
  },
  {
    "id": 89,
    "nameZh": "大同分局",
    "nameEn": "Datong Police Precinct",
    "address": "臺北市大同區錦西街200號",
    "phone": "02 25577262",
    "latitude": 25.059507995455633,
    "longitude": 121.51500099652823
  },
  {
    "id": 90,
    "nameZh": "建成派出所",
    "nameEn": "Jiancheng Police Station",
    "address": "臺北市大同區承德路1段80號",
    "phone": "02 25585463",
    "latitude": 25.052769000706377,
    "longitude": 121.51735300495959
  },
  {
    "id": 91,
    "nameZh": "民生西路派出所",
    "nameEn": "Minsheng Rd. Police Station",
    "address": "臺北市大同區保安街47之1號",
    "phone": "02 25538587",
    "latitude": 25.059248995856652,
    "longitude": 121.51207499719911
  },
  {
    "id": 92,
    "nameZh": "延平派出所",
    "nameEn": "Yanping Police Station",
    "address": "臺北市大同區延平北路1段86號",
    "phone": "02 25564340",
    "latitude": 25.05222500373578,
    "longitude": 121.51173700021582
  },
  {
    "id": 93,
    "nameZh": "重慶北路派出所",
    "nameEn": "Chongqing N. Rd. Police Station",
    "address": "臺北市大同區重慶北路3段320之2號",
    "phone": "02 25944741",
    "latitude": 25.075474001146173,
    "longitude": 121.51354999867993
  },
  {
    "id": 94,
    "nameZh": "寧夏路派出所",
    "nameEn": "Ningxia Rd. Police Station",
    "address": "臺北市大同區錦西街200號",
    "phone": "02 25575011",
    "latitude": 25.059507995455633,
    "longitude": 121.51500099652823
  },
  {
    "id": 95,
    "nameZh": "民族路派出所",
    "nameEn": "Minzu Rd. Police Station",
    "address": "臺北市大同區重慶北路3段168號",
    "phone": "02 25926204",
    "latitude": 25.068807995181125,
    "longitude": 121.51352699711862
  },
  {
    "id": 96,
    "nameZh": "萬華分局",
    "nameEn": "Wanhua Police Precinct",
    "address": "臺北市萬華區康定路22號",
    "phone": "02 23140364",
    "latitude": 25.045125999108883,
    "longitude": 121.50288799587535
  },
  {
    "id": 97,
    "nameZh": "青年路派出所",
    "nameEn": "Qingnian Rd. Police Station",
    "address": "臺北市萬華區萬大路423巷112號",
    "phone": "02 23054219",
    "latitude": 25.021940997979407,
    "longitude": 121.50215400098767
  },
  {
    "id": 98,
    "nameZh": "東園街派出所",
    "nameEn": "Dongyuan St. Police Station",
    "address": "臺北市萬華區萬大路424巷85號",
    "phone": "02 23033247",
    "latitude": 25.021214998399355,
    "longitude": 121.4957929976113
  },
  {
    "id": 99,
    "nameZh": "西園路派出所",
    "nameEn": "Xiyuan Rd. Police Station",
    "address": "臺北市萬華區東園街17號",
    "phone": "02 23032943",
    "latitude": 25.028178997995774,
    "longitude": 121.49562399713355
  },
  {
    "id": 100,
    "nameZh": "莒光派出所",
    "nameEn": "Juguang Police Station",
    "address": "臺北市萬華區莒光路171號",
    "phone": "02 23064987",
    "latitude": 25.031099001194615,
    "longitude": 121.50270199581756
  },
  {
    "id": 101,
    "nameZh": "華江派出所",
    "nameEn": "Huajiang Police Station",
    "address": "臺北市萬華區環河南路2段196號",
    "phone": "02 23061531",
    "latitude": 25.034472003727647,
    "longitude": 121.4932510048502
  },
  {
    "id": 102,
    "nameZh": "大理街派出所",
    "nameEn": "Dali St. Police Station",
    "address": "臺北市萬華區大理街99號",
    "phone": "02 23063468",
    "latitude": 25.0344070030276,
    "longitude": 121.49826800171091
  },
  {
    "id": 103,
    "nameZh": "康定路派出所",
    "nameEn": "Kangding Rd. Police Station",
    "address": "臺北市萬華區和平西路3段112號",
    "phone": "02 23064226",
    "latitude": 25.03510199804583,
    "longitude": 121.50040100387125
  },
  {
    "id": 104,
    "nameZh": "龍山派出所",
    "nameEn": "Longshan Police Station",
    "address": "臺北市萬華區桂林路135號",
    "phone": "02 23314823",
    "latitude": 25.038601001700133,
    "longitude": 121.49961099541378
  },
  {
    "id": 105,
    "nameZh": "西門町派出所",
    "nameEn": "Ximending Police Station",
    "address": "臺北市萬華區康定路22號",
    "phone": "02 23312212",
    "latitude": 25.045125999108883,
    "longitude": 121.50288799587535
  },
  {
    "id": 106,
    "nameZh": "新北市政府警察局",
    "nameEn": "New Taipei City Police Department",
    "address": "新北市板橋區府中路32號",
    "phone": "02 80725454",
    "latitude": 25.00929306711294,
    "longitude": 121.45950079012916
  },
  {
    "id": 107,
    "nameZh": "土城分局",
    "nameEn": "Tucheng Police Precinct",
    "address": "新北市土城區和平路22號",
    "phone": "02  22665929",
    "latitude": 24.973281001829214,
    "longitude": 121.44292600181042
  },
  {
    "id": 108,
    "nameZh": "土城派出所",
    "nameEn": "Tucheng Police Station",
    "address": "新北市土城區和平路22號",
    "phone": "02  22656058",
    "latitude": 24.973281001829214,
    "longitude": 121.44292600181042
  },
  {
    "id": 109,
    "nameZh": "金城派出所",
    "nameEn": "Jincheng Police Station",
    "address": "新北市土城區延吉街318號",
    "phone": "02 22633152",
    "latitude": 24.9840930006798,
    "longitude": 121.4635209977871
  },
  {
    "id": 110,
    "nameZh": "廣福派出所",
    "nameEn": "Guangfu Police Station",
    "address": "新北市土城區莊園街2號",
    "phone": "02 22701588",
    "latitude": 24.982462000817048,
    "longitude": 121.4438300035864
  },
  {
    "id": 111,
    "nameZh": "清水派出所",
    "nameEn": "Qingshui Police Station",
    "address": "新北市土城區青雲路220號",
    "phone": "02  22615090",
    "latitude": 24.98129599491332,
    "longitude": 121.45889199975731
  },
  {
    "id": 112,
    "nameZh": "頂埔派出所",
    "nameEn": "Dingpu Police Station",
    "address": "新北市土城區中央路4段102號",
    "phone": "02 22681220",
    "latitude": 24.95931899825658,
    "longitude": 121.41827400078661
  },
  {
    "id": 113,
    "nameZh": "三峽分局",
    "nameEn": "Sanxia Precint",
    "address": "新北市三峽區中正路1段48號",
    "phone": "02  26711796",
    "latitude": 24.930547995735967,
    "longitude": 121.3752350039452
  },
  {
    "id": 114,
    "nameZh": "吉埔派出所",
    "nameEn": "Jipo Station",
    "address": "新北市三峽區中正路2段451號",
    "phone": "02  26711278",
    "latitude": 24.906672001046623,
    "longitude": 121.36267199578982
  },
  {
    "id": 115,
    "nameZh": "成福派出所",
    "nameEn": "Chengfu Station",
    "address": "新北市三峽區成福路84號",
    "phone": "02  26726097",
    "latitude": 24.92979799663895,
    "longitude": 121.42060899941956
  },
  {
    "id": 116,
    "nameZh": "圳頭派出所",
    "nameEn": "Zuntou Station",
    "address": "新北市三峽區中正路2段451號",
    "phone": "02  26741167",
    "latitude": 24.906672001046623,
    "longitude": 121.36267199578982
  },
  {
    "id": 117,
    "nameZh": "五寮派出所",
    "nameEn": "Wuliao Station",
    "address": "新北市三峽區五寮里五寮154號",
    "phone": "02  26720283",
    "latitude": 24.85813200131266,
    "longitude": 121.35932599797322
  },
  {
    "id": 118,
    "nameZh": "插角派出所",
    "nameEn": "Chajiao Station",
    "address": "新北市三峽區插角里插角67之1號",
    "phone": "02  26720121",
    "latitude": 24.870909003018305,
    "longitude": 121.40649799890957
  },
  {
    "id": 119,
    "nameZh": "湖山派出所",
    "nameEn": "Hushan Station",
    "address": "新北市鶯歌區大湖路370號",
    "phone": "02  26792474",
    "latitude": 24.97304400293863,
    "longitude": 121.34620899727746
  },
  {
    "id": 120,
    "nameZh": "鳳鳴派出所",
    "nameEn": "Fengming Station",
    "address": "新北市鶯歌區鳳鳴里莒光街20號",
    "phone": "02  26789110",
    "latitude": 24.96628399637922,
    "longitude": 121.33239800117049
  },
  {
    "id": 121,
    "nameZh": "二橋派出所",
    "nameEn": "Erqiao Station",
    "address": "新北市鶯歌區中正三路6號",
    "phone": "02  26781225",
    "latitude": 24.942311998794644,
    "longitude": 121.33894100400128
  },
  {
    "id": 122,
    "nameZh": "橫溪派出所",
    "nameEn": "HengXi Station",
    "address": "新北市三峽區介壽路3段49號",
    "phone": "02  86761762",
    "latitude": 24.937407002716707,
    "longitude": 121.39546999596216
  },
  {
    "id": 123,
    "nameZh": "鶯歌分駐所",
    "nameEn": "Yingge  Station",
    "address": "新北市鶯歌區中正一路195號",
    "phone": "02  26792024",
    "latitude": 24.957169996419772,
    "longitude": 121.35313999673991
  },
  {
    "id": 124,
    "nameZh": "三峽派出所",
    "nameEn": "Sanxia  Station",
    "address": "新北市三峽區民權街38號",
    "phone": "02  26711254",
    "latitude": 24.933737002179928,
    "longitude": 121.36965700176401
  },
  {
    "id": 125,
    "nameZh": "北大派出所",
    "nameEn": "Beida Station",
    "address": "新北市三峽區學成路396號",
    "phone": "02 26730561",
    "latitude": 24.944196002569008,
    "longitude": 121.37777099727717
  },
  {
    "id": 126,
    "nameZh": "三重分局",
    "nameEn": "Sanchong Police Precinct",
    "address": "新北市三重區重新路3段147號",
    "phone": "02  89818900",
    "latitude": 25.059053998197438,
    "longitude": 121.49013300212829
  },
  {
    "id": 127,
    "nameZh": "永福派出所",
    "nameEn": "Yongfu Police Station",
    "address": "新北市三重區力行路2段162巷53號",
    "phone": "02  22802065",
    "latitude": 25.076530003688806,
    "longitude": 121.48143999752153
  },
  {
    "id": 128,
    "nameZh": "中興橋派出所",
    "nameEn": "Jhongsing Police Station",
    "address": "新北市三重區成功路21號",
    "phone": "02  29789513",
    "latitude": 25.05048999588838,
    "longitude": 121.49016800147878
  },
  {
    "id": 129,
    "nameZh": "光明派出所",
    "nameEn": "Guangming Police Station",
    "address": "新北市三重區過圳街46號",
    "phone": "02  29860655",
    "latitude": 25.060848995576002,
    "longitude": 121.48729800150272
  },
  {
    "id": 130,
    "nameZh": "慈福派出所",
    "nameEn": "Cihfu Police Station",
    "address": "新北市三重區仁愛街519號",
    "phone": "02  29815111",
    "latitude": 25.082249997370667,
    "longitude": 121.48719399555307
  },
  {
    "id": 131,
    "nameZh": "厚德派出所",
    "nameEn": "Houde Police Station",
    "address": "新北市三重區三和路3段186號",
    "phone": "02  29712064",
    "latitude": 25.07343200033886,
    "longitude": 121.49210500318982
  },
  {
    "id": 132,
    "nameZh": "長泰派出所",
    "nameEn": "Changtai Police Station",
    "address": "新北市三重區仁愛街15號",
    "phone": "02  29735094",
    "latitude": 25.070775000668053,
    "longitude": 121.49709899844311
  },
  {
    "id": 133,
    "nameZh": "三重派出所",
    "nameEn": "Sanchong Police Station",
    "address": "新北市三重區重新路1段43號",
    "phone": "02  29722553",
    "latitude": 25.06397199603192,
    "longitude": 121.50232000399197
  },
  {
    "id": 134,
    "nameZh": "大同派出所",
    "nameEn": "Datong Police Station",
    "address": "新北市三重區大同南路155號",
    "phone": "02  29723261",
    "latitude": 25.05657299498211,
    "longitude": 121.49663900228717
  },
  {
    "id": 135,
    "nameZh": "二重派出所",
    "nameEn": "Erchong Police Station",
    "address": "新北市三重區重新路5段406號",
    "phone": "02  29956794",
    "latitude": 25.047532001325507,
    "longitude": 121.4759209972371
  },
  {
    "id": 136,
    "nameZh": "大有派出所",
    "nameEn": "Dayou Police Station",
    "address": "新北市三重區大有里中正北路402號",
    "phone": "02  89851911",
    "latitude": 25.070370999826757,
    "longitude": 121.47558799684526
  },
  {
    "id": 137,
    "nameZh": "重陽派出所",
    "nameEn": "Chongyang Police Station",
    "address": "新北市三重區集賢路163號",
    "phone": "02  82879727",
    "latitude": 25.089216998885156,
    "longitude": 121.48789300030545
  },
  {
    "id": 138,
    "nameZh": "中和分局",
    "nameEn": "Zhonghe Police Precinct",
    "address": "新北市中和區圓通路30號",
    "phone": "02 22498950",
    "latitude": 24.997927999807597,
    "longitude": 121.50101800100916
  },
  {
    "id": 139,
    "nameZh": "中和派出所",
    "nameEn": "Zhonghe Police Station",
    "address": "新北市中和區中和路102之1號",
    "phone": "02 22492624",
    "latitude": 24.99965899998227,
    "longitude": 121.5024650044257
  },
  {
    "id": 140,
    "nameZh": "安平派出所",
    "nameEn": "Anping Police Station",
    "address": "新北市中和區中安街175號",
    "phone": "02 29264139",
    "latitude": 25.00019699977804,
    "longitude": 121.51109300363214
  },
  {
    "id": 141,
    "nameZh": "秀山派出所",
    "nameEn": "Xiushan Police Station",
    "address": "新北市中和區成功路139號",
    "phone": "02 29402114",
    "latitude": 24.990472002778464,
    "longitude": 121.5259829984372
  },
  {
    "id": 142,
    "nameZh": "南勢派出所",
    "nameEn": "Nanshi Police Station",
    "address": "新北市中和區南山路322號",
    "phone": "02 29419445",
    "latitude": 24.986521996329476,
    "longitude": 121.50793599881605
  },
  {
    "id": 143,
    "nameZh": "景安派出所",
    "nameEn": "Jing'an Police Station",
    "address": "新北市中和區復興路276號",
    "phone": "02 22436955",
    "latitude": 24.990482000621242,
    "longitude": 121.50267800308639
  },
  {
    "id": 144,
    "nameZh": "國光派出所",
    "nameEn": "Guoguang Police Station",
    "address": "新北市中和區莒光路160號",
    "phone": "02 29569805",
    "latitude": 25.000497996295998,
    "longitude": 121.47252399932792
  },
  {
    "id": 145,
    "nameZh": "錦和派出所",
    "nameEn": "Jinhe Police Station",
    "address": "新北市中和區中正路275號1樓",
    "phone": "02 22482551",
    "latitude": 24.993662997449526,
    "longitude": 121.49557200378992
  },
  {
    "id": 146,
    "nameZh": "中原派出所",
    "nameEn": "Zhongyuan Police Station",
    "address": "新北市中和區立德街60號",
    "phone": "02 22213029",
    "latitude": 25.00762100282597,
    "longitude": 121.48830200061872
  },
  {
    "id": 147,
    "nameZh": "積穗派出所",
    "nameEn": "Ji-sui Police Station",
    "address": "新北市中和區員山路471號",
    "phone": "02 22268955",
    "latitude": 25.00481900342455,
    "longitude": 121.48014899631082
  },
  {
    "id": 148,
    "nameZh": "員山派出所",
    "nameEn": "Yuanshan Police Station",
    "address": "新北市中和區員山路235巷1號",
    "phone": "02 22237295",
    "latitude": 24.998258995065047,
    "longitude": 121.48091500138042
  },
  {
    "id": 149,
    "nameZh": "板橋分局",
    "nameEn": "Banqiao Police Precinct",
    "address": "新北市板橋區文化路1段52號",
    "phone": "02 80725454",
    "latitude": 25.01233299733866,
    "longitude": 121.46007699698784
  },
  {
    "id": 150,
    "nameZh": "沙崙派出所",
    "nameEn": "Shalun Police Station",
    "address": "新北市板橋區溪北路111號",
    "phone": "02 26812741",
    "latitude": 24.98849600276988,
    "longitude": 121.4304900047884
  },
  {
    "id": 151,
    "nameZh": "大觀派出所",
    "nameEn": "Daguan Police Station",
    "address": "新北市板橋區大觀路2段127號",
    "phone": "02 22752477",
    "latitude": 25.001247999892197,
    "longitude": 121.4459479950487
  },
  {
    "id": 152,
    "nameZh": "後埔派出所",
    "nameEn": "Houpu Police Station",
    "address": "新北市板橋區成都街22號",
    "phone": "02 29615964",
    "latitude": 25.00477400007819,
    "longitude": 121.46087499721355
  },
  {
    "id": 153,
    "nameZh": "板橋派出所",
    "nameEn": "Banqiao Police Station",
    "address": "新北市板橋區北門街17號",
    "phone": "02 29699664",
    "latitude": 25.01100500204733,
    "longitude": 121.45685699853983
  },
  {
    "id": 154,
    "nameZh": "信義派出所",
    "nameEn": "Xinyi Police Station",
    "address": "新北市板橋區廣權路28號",
    "phone": "02  29592317",
    "latitude": 24.991291998688673,
    "longitude": 121.46203000147132
  },
  {
    "id": 155,
    "nameZh": "樹林分局",
    "nameEn": "Shulin Police Precinct",
    "address": "新北市樹林區保安街1段283號",
    "phone": "02  26812101",
    "latitude": 24.996917001432656,
    "longitude": 121.41883400354115
  },
  {
    "id": 156,
    "nameZh": "柑園派出所",
    "nameEn": "Ganyaun Police Station",
    "address": "新北市樹林區佳園路3段20號",
    "phone": "02  26801075",
    "latitude": 24.95424299619372,
    "longitude": 121.38787699912908
  },
  {
    "id": 157,
    "nameZh": "山佳派出所",
    "nameEn": "Shanjia Police Station",
    "address": "新北市樹林區中山路3段38號",
    "phone": "02  26806114",
    "latitude": 24.97267099986593,
    "longitude": 121.39486500435022
  },
  {
    "id": 158,
    "nameZh": "三多派出所",
    "nameEn": "Sanfu Police Station",
    "address": "新北市樹林區三福街72號",
    "phone": "02  26894108",
    "latitude": 25.016316002923354,
    "longitude": 121.40465300128605
  },
  {
    "id": 159,
    "nameZh": "樹林派出所",
    "nameEn": "Shulin Police Station",
    "address": "新北市樹林區鎮前街35號",
    "phone": "02  26812034",
    "latitude": 24.991944002785548,
    "longitude": 121.42552399520623
  },
  {
    "id": 160,
    "nameZh": "彭厝派出所",
    "nameEn": "Pengcuo Police Station",
    "address": "新北市樹林區國凱街65號",
    "phone": "02 86868077",
    "latitude": 24.979844996779942,
    "longitude": 121.42218600018465
  },
  {
    "id": 161,
    "nameZh": "永和分局",
    "nameEn": "Yonghe Police Precinct",
    "address": "新北市永和區竹林路198號",
    "phone": "02  29213119",
    "latitude": 25.00955699719314,
    "longitude": 121.52038800353347
  },
  {
    "id": 162,
    "nameZh": "得和派出所",
    "nameEn": "Dehe Police Station",
    "address": "新北市永和區民權路51號",
    "phone": "02  29451969",
    "latitude": 24.997070995484986,
    "longitude": 121.52006700341333
  },
  {
    "id": 163,
    "nameZh": "中正橋派出所",
    "nameEn": "Zhongzhengqiao Police Station",
    "address": "新北市永和區竹林路198號1樓",
    "phone": "02  29215119",
    "latitude": 25.00955699719314,
    "longitude": 121.52038800353347
  },
  {
    "id": 164,
    "nameZh": "新生派出所",
    "nameEn": "Xinsheng Police Station",
    "address": "新北市永和區仁愛路187號",
    "phone": "02  29217119",
    "latitude": 25.01258900324348,
    "longitude": 121.51025899788873
  },
  {
    "id": 165,
    "nameZh": "秀朗派出所",
    "nameEn": "Xiulang Police Station",
    "address": "新北市永和區永利路73號",
    "phone": "02  29251130",
    "latitude": 25.003797996219923,
    "longitude": 121.52106099822812
  },
  {
    "id": 166,
    "nameZh": "永和派出所",
    "nameEn": "Yonghe Police Station",
    "address": "新北市永和區安樂路344號",
    "phone": "02  29214229",
    "latitude": 25.00623100046392,
    "longitude": 121.51452499773819
  },
  {
    "id": 167,
    "nameZh": "汐止分局",
    "nameEn": "Xizhi Police Precinct",
    "address": "新北市汐止區大同路2段459號",
    "phone": "02  26412610",
    "latitude": 25.068165001427143,
    "longitude": 121.66023500231496
  },
  {
    "id": 168,
    "nameZh": "東山派出所",
    "nameEn": "Dung Shan Police Station",
    "address": "新北市汐止區汐平路2段68號",
    "phone": "02  26415841",
    "latitude": 25.06069700363735,
    "longitude": 121.69891299626093
  },
  {
    "id": 169,
    "nameZh": "烘內派出所",
    "nameEn": "Hung Nei Police Station",
    "address": "新北市汐止區汐萬路2段230號",
    "phone": "02  26462564",
    "latitude": 25.088443002118574,
    "longitude": 121.64676199832284
  },
  {
    "id": 170,
    "nameZh": "長青派出所",
    "nameEn": "Changqing Police Station",
    "address": "新北市汐止區長青路188巷1之1號",
    "phone": "02  26451281",
    "latitude": 25.111177000897847,
    "longitude": 121.6058350039323
  },
  {
    "id": 171,
    "nameZh": "橫科派出所",
    "nameEn": "Heng Ke Police Station",
    "address": "新北市汐止區民權街2段87號",
    "phone": "02  26401237",
    "latitude": 25.047658003411893,
    "longitude": 121.61922600444007
  },
  {
    "id": 172,
    "nameZh": "社后派出所",
    "nameEn": "She Hou Police Station",
    "address": "新北市汐止區中興路108號",
    "phone": "02  26942819",
    "latitude": 25.063742003196086,
    "longitude": 121.63343199820024
  },
  {
    "id": 173,
    "nameZh": "長安派出所",
    "nameEn": "Chang An Police Station",
    "address": "新北市汐止區大同路3段99號",
    "phone": "02  86482618",
    "latitude": 25.07753900374828,
    "longitude": 121.66813100077442
  },
  {
    "id": 174,
    "nameZh": "汐止派出所",
    "nameEn": "Xizhi Police Station",
    "address": "新北市汐止區民生街1號",
    "phone": "02  26412827",
    "latitude": 25.068214003323124,
    "longitude": 121.66027799533268
  },
  {
    "id": 175,
    "nameZh": "淡水分局",
    "nameEn": "Tamsui Police Precinct",
    "address": "新北市淡水區中正路229號",
    "phone": "02 26224330",
    "latitude": 25.172608002401493,
    "longitude": 121.43663999586266
  },
  {
    "id": 176,
    "nameZh": "水源派出所",
    "nameEn": "Shuiyuan Police Station",
    "address": "新北市淡水區北新路2段19號",
    "phone": "02  26200534",
    "latitude": 25.18583500341408,
    "longitude": 121.47806099622666
  },
  {
    "id": 177,
    "nameZh": "興仁派出所",
    "nameEn": "Xingren Police Station",
    "address": "新北市淡水區興仁路93號",
    "phone": "02  26236399",
    "latitude": 25.21774599993076,
    "longitude": 121.4518410007053
  },
  {
    "id": 178,
    "nameZh": "賢孝派出所",
    "nameEn": "Xianxiao Police Station",
    "address": "新北市淡水區淡金路5段72號",
    "phone": "02  28011505",
    "latitude": 25.23353300138746,
    "longitude": 121.45469300309563
  },
  {
    "id": 179,
    "nameZh": "後厝派出所",
    "nameEn": "Houcuo Police Station",
    "address": "新北市三芝區後厝里北勢子45之32號",
    "phone": "02  26362052",
    "latitude": 25.250971996139636,
    "longitude": 121.46929100305417
  },
  {
    "id": 180,
    "nameZh": "興華派出所",
    "nameEn": "Xinghua Police Station",
    "address": "新北市三芝區興華里田心子1號",
    "phone": "02  26371851",
    "latitude": 25.204688003268522,
    "longitude": 121.50212299529962
  },
  {
    "id": 181,
    "nameZh": "三芝分駐所",
    "nameEn": "Sanzhi Police Station",
    "address": "新北市三芝區育英街27號",
    "phone": "02  26362049",
    "latitude": 25.25741100067523,
    "longitude": 121.50110700491001
  },
  {
    "id": 182,
    "nameZh": "中正路派出所",
    "nameEn": "Zhongzheng Road Police Station",
    "address": "新北市淡水區中正路320號",
    "phone": "02  26212752",
    "latitude": 25.17281900204826,
    "longitude": 121.43659199756526
  },
  {
    "id": 183,
    "nameZh": "中山路派出所",
    "nameEn": "Zhongshan Road Police Station",
    "address": "新北市淡水區中正東路40號",
    "phone": "02  26212753",
    "latitude": 25.165216998086645,
    "longitude": 121.44980899908185
  },
  {
    "id": 184,
    "nameZh": "竹圍派出所",
    "nameEn": "Zhuwei Police Station",
    "address": "新北市淡水區民權路32號",
    "phone": "02  28092831",
    "latitude": 25.137436999735897,
    "longitude": 121.45980199812828
  },
  {
    "id": 185,
    "nameZh": "水碓派出所",
    "nameEn": "Shuidui Police Station",
    "address": "新北市淡水區中山北路1段160號",
    "phone": "02  26212491",
    "latitude": 25.178276998211803,
    "longitude": 121.44438700430072
  },
  {
    "id": 186,
    "nameZh": "新店分局",
    "nameEn": "Xindian Police Precinct",
    "address": "新北市新店區寶橋路188號4樓",
    "phone": "02  29111170",
    "latitude": 24.977575003487875,
    "longitude": 121.54965899586662
  },
  {
    "id": 187,
    "nameZh": "龜山派出所",
    "nameEn": "Guishan Police Station",
    "address": "新北市新店區新烏路3段152號",
    "phone": "02  26667560",
    "latitude": 24.902666996152213,
    "longitude": 121.55171699568858
  },
  {
    "id": 188,
    "nameZh": "德拉楠派出所",
    "nameEn": "Delana Police Station",
    "address": "新北市烏來區福山里李茂岸30號",
    "phone": "02  26616260",
    "latitude": 24.77797199804188,
    "longitude": 121.50181400041062
  },
  {
    "id": 189,
    "nameZh": "楓子林派出所",
    "nameEn": "Fengzilin Police Station",
    "address": "新北市石碇區楓子林32號",
    "phone": "02  26631285",
    "latitude": 25.009812001073893,
    "longitude": 121.64248800239221
  },
  {
    "id": 190,
    "nameZh": "石嘈派出所",
    "nameEn": "Shicao Police Station",
    "address": "新北市坪林區北宜路9段6號",
    "phone": "02  26656343",
    "latitude": 24.902364997001815,
    "longitude": 121.71971099730476
  },
  {
    "id": 191,
    "nameZh": "漁光派出所",
    "nameEn": "Yuguang Police Station",
    "address": "新北市坪林區漁光里大舌湖24號",
    "phone": "02  26656910",
    "latitude": 24.963382998717393,
    "longitude": 121.73891099554679
  },
  {
    "id": 192,
    "nameZh": "孝義派出所",
    "nameEn": "Xiaoyi Police Station",
    "address": "新北市烏來區孝義里阿玉路2號",
    "phone": "02  26616139",
    "latitude": 24.850055003782238,
    "longitude": 121.5712389958345
  },
  {
    "id": 193,
    "nameZh": "雙城派出所",
    "nameEn": "Shuangcheng Police Station",
    "address": "新北市新店區安康路3段209號",
    "phone": "02  22158566",
    "latitude": 24.95170600171932,
    "longitude": 121.48780999523984
  },
  {
    "id": 194,
    "nameZh": "中民派出所",
    "nameEn": "Zhongmin Police Station",
    "address": "新北市石碇區靜安路1段236號",
    "phone": "02  26631254",
    "latitude": 25.008209001486897,
    "longitude": 121.67292299861475
  },
  {
    "id": 195,
    "nameZh": "碧山派出所",
    "nameEn": "Bishan Police Station",
    "address": "新北市石碇區北宜路5段42號",
    "phone": "02  26651835",
    "latitude": 24.951643996157834,
    "longitude": 121.63181400177932
  },
  {
    "id": 196,
    "nameZh": "屈尺派出所",
    "nameEn": "Quchi Police Station",
    "address": "新北市新店區屈尺路82號",
    "phone": "02  26667439",
    "latitude": 24.92270899476629,
    "longitude": 121.54617799900394
  },
  {
    "id": 197,
    "nameZh": "深坑分駐所",
    "nameEn": "Shenkeng Police Station",
    "address": "新北市深坑區平埔街16號",
    "phone": "02  26621658",
    "latitude": 25.00159499773359,
    "longitude": 121.6154329965616
  },
  {
    "id": 198,
    "nameZh": "桶壁派出所",
    "nameEn": "Tongbi Police Station",
    "address": "新北市烏來區新烏路4段23號",
    "phone": "02  26616533",
    "latitude": 24.88427099510965,
    "longitude": 121.54929999657423
  },
  {
    "id": 199,
    "nameZh": "石碇分駐所",
    "nameEn": "Shiding Police Station",
    "address": "新北市石碇區碇坪路1段79號",
    "phone": "02 26631240",
    "latitude": 24.99122900158882,
    "longitude": 121.66061199993969
  },
  {
    "id": 200,
    "nameZh": "哪哮派出所",
    "nameEn": "Naxiao Police Station",
    "address": "新北市烏來區信福路11號",
    "phone": "02  26616400",
    "latitude": 24.83824199501131,
    "longitude": 121.52616199845122
  },
  {
    "id": 201,
    "nameZh": "坪林分駐所",
    "nameEn": "Pinglin Police Station",
    "address": "新北市坪林區坪林街106號",
    "phone": "02  26656281",
    "latitude": 24.93569699561362,
    "longitude": 121.71148200275893
  },
  {
    "id": 202,
    "nameZh": "青潭派出所",
    "nameEn": "Qingtan Police Station",
    "address": "新北市新店區北宜路2段417號",
    "phone": "02  22171146",
    "latitude": 24.954574997723412,
    "longitude": 121.5599789952474
  },
  {
    "id": 203,
    "nameZh": "烏來分駐所",
    "nameEn": "Wulai Police Station",
    "address": "新北市烏來區烏來街45號",
    "phone": "02  26616410",
    "latitude": 24.86477300116702,
    "longitude": 121.55200900037289
  },
  {
    "id": 204,
    "nameZh": "闊瀨派出所",
    "nameEn": "Kuolai Police Station",
    "address": "新北市坪林區坪雙路3段6號",
    "phone": "02  26657041",
    "latitude": 24.96562699644222,
    "longitude": 121.77119800280279
  },
  {
    "id": 205,
    "nameZh": "安康派出所",
    "nameEn": "Ankang Police Station",
    "address": "新北市新店區安康路2段70號",
    "phone": "02  22117337",
    "latitude": 24.963678001775907,
    "longitude": 121.51453199516529
  },
  {
    "id": 206,
    "nameZh": "豐田派出所",
    "nameEn": "Fengtian Police Station",
    "address": "新北市石碇區豐田里磨石坑8號",
    "phone": "02  26631975",
    "latitude": 24.972458997325617,
    "longitude": 121.68768699708684
  },
  {
    "id": 207,
    "nameZh": "頂城派出所",
    "nameEn": "Dingcheng Police Station",
    "address": "新北市新店區碧潭路75號3樓",
    "phone": "02  22118023",
    "latitude": 24.95700600370396,
    "longitude": 121.53435000103981
  },
  {
    "id": 208,
    "nameZh": "直潭派出所",
    "nameEn": "Zhitan Police Station",
    "address": "新北市新店區直潭十街27號",
    "phone": "02  26667324",
    "latitude": 24.93851399934551,
    "longitude": 121.53454200001478
  },
  {
    "id": 209,
    "nameZh": "江陵派出所",
    "nameEn": "Jiangling Police Station",
    "address": "新北市新店區民族路7號",
    "phone": "02  29112165",
    "latitude": 24.978666001344074,
    "longitude": 121.54189499576403
  },
  {
    "id": 210,
    "nameZh": "金溪派出所",
    "nameEn": "Jinxi Police Station",
    "address": "新北市坪林區粗窟里金瓜寮23之1號",
    "phone": "02  26656487",
    "latitude": 24.911248996437717,
    "longitude": 121.67911499989637
  },
  {
    "id": 211,
    "nameZh": "碧潭派出所",
    "nameEn": "Bitan Police Station",
    "address": "新北市新店區新生里北新路1段129號",
    "phone": "02  29111665",
    "latitude": 24.962827995690578,
    "longitude": 121.53939600203115
  },
  {
    "id": 212,
    "nameZh": "安和派出所",
    "nameEn": "Anhe Police Station",
    "address": "新北市新店區安和路3段1號",
    "phone": "02  29467780",
    "latitude": 24.97985900182731,
    "longitude": 121.5174699978673
  },
  {
    "id": 213,
    "nameZh": "新莊分局",
    "nameEn": "Xinzhuang Police Precinct",
    "address": "新北市新莊區中正路150號",
    "phone": "02  29924034",
    "latitude": 25.03615800119372,
    "longitude": 121.45171299661104
  },
  {
    "id": 214,
    "nameZh": "丹鳳派出所",
    "nameEn": "Danfeng Police Station",
    "address": "新北市新莊區雙鳳路75號1樓",
    "phone": "02  29083119",
    "latitude": 25.027663997427403,
    "longitude": 121.41492799710318
  },
  {
    "id": 215,
    "nameZh": "光華派出所",
    "nameEn": "Guanghua Police Station",
    "address": "新北市新莊區民安西路141號",
    "phone": "02  22050330",
    "latitude": 25.017042996790597,
    "longitude": 121.42643699777673
  },
  {
    "id": 216,
    "nameZh": "福營派出所",
    "nameEn": "Fuying Police Station",
    "address": "新北市新莊區褔營路101號",
    "phone": "02  29017434",
    "latitude": 25.032211507260868,
    "longitude": 121.43428051708507
  },
  {
    "id": 217,
    "nameZh": "頭前派出所",
    "nameEn": "Touqian Police Station",
    "address": "新北市新莊區化成路312號",
    "phone": "02  29921043",
    "latitude": 25.048146998760284,
    "longitude": 121.46576300184168
  },
  {
    "id": 218,
    "nameZh": "中港派出所",
    "nameEn": "Zhonggang Police Station",
    "address": "新北市新莊區中港路352號",
    "phone": "02  29922112",
    "latitude": 25.046363996274216,
    "longitude": 121.45196099893384
  },
  {
    "id": 219,
    "nameZh": "新莊派出所",
    "nameEn": "Xinzhuang Police Station",
    "address": "新北市新莊區新莊路212號",
    "phone": "02  29924018",
    "latitude": 25.034686000678786,
    "longitude": 121.45356999986784
  },
  {
    "id": 220,
    "nameZh": "新樹派出所",
    "nameEn": "Xinshu Police Station",
    "address": "新北市新莊區樹新路222號",
    "phone": "02 22075386",
    "latitude": 25.000189998732342,
    "longitude": 121.43141300419374
  },
  {
    "id": 221,
    "nameZh": "中平派出所",
    "nameEn": "Zhongping Police Station",
    "address": "新北市新莊區中平路288號",
    "phone": "02  89919755",
    "latitude": 25.051230999178973,
    "longitude": 121.44487500461011
  },
  {
    "id": 222,
    "nameZh": "五工派出所",
    "nameEn": "Wugong Police Station",
    "address": "新北市新莊區五工路95之1號",
    "phone": "02  22993050",
    "latitude": 25.063316999681025,
    "longitude": 121.45777600037076
  },
  {
    "id": 223,
    "nameZh": "昌平派出所",
    "nameEn": "Changping Police Station",
    "address": "新北市新莊區富貴路111號",
    "phone": "02 85227625",
    "latitude": 25.057113000840875,
    "longitude": 121.45490499966107
  },
  {
    "id": 224,
    "nameZh": "林口分局",
    "nameEn": "Limkou Police Precinct",
    "address": "新北市林口區忠孝二路57號",
    "phone": "02  26068455",
    "latitude": 25.07008700291266,
    "longitude": 121.3635400006862
  },
  {
    "id": 225,
    "nameZh": "林口派出所",
    "nameEn": "Limkou Police Station",
    "address": "新北市林口區中正路102號",
    "phone": "02  26011630",
    "latitude": 25.077323995623313,
    "longitude": 121.39378399661464
  },
  {
    "id": 226,
    "nameZh": "文化派出所",
    "nameEn": "Wenhua Police Station",
    "address": "新北市林口區麗園一街5號",
    "phone": "02  26095766",
    "latitude": 25.072185000263918,
    "longitude": 121.37644200450217
  },
  {
    "id": 227,
    "nameZh": "忠孝派出所",
    "nameEn": "Zhongxiao Police Station",
    "address": "新北市林口區忠孝二路57號",
    "phone": "02 26087165",
    "latitude": 25.07008700291266,
    "longitude": 121.3635400006862
  },
  {
    "id": 228,
    "nameZh": "下福派出所",
    "nameEn": "Xiafu Police Station",
    "address": "新北市林口區下福里下福99之1號",
    "phone": "02  26062835",
    "latitude": 25.117009996047326,
    "longitude": 121.28970899514468
  },
  {
    "id": 229,
    "nameZh": "瑞平派出所",
    "nameEn": "Ruiping Police Station",
    "address": "新北市林口區瑞平里10鄰44號",
    "phone": "02  26052724",
    "latitude": 25.12265300207236,
    "longitude": 121.33584300261369
  },
  {
    "id": 230,
    "nameZh": "泰山分駐所",
    "nameEn": "Taishan Police Station",
    "address": "新北市泰山區泰林路2段214號",
    "phone": "02  29097947",
    "latitude": 25.061684998183615,
    "longitude": 121.43304899583411
  },
  {
    "id": 231,
    "nameZh": "明志派出所",
    "nameEn": "Mingzhi Police Station",
    "address": "新北市泰山區明志路2段426號",
    "phone": "02  29069881",
    "latitude": 25.04381099659144,
    "longitude": 121.42471200380017
  },
  {
    "id": 232,
    "nameZh": "文林派出所",
    "nameEn": "Wenlin Police Station",
    "address": "新北市林口區文化三路2段600號",
    "phone": "02  26030703",
    "latitude": 25.08752999850186,
    "longitude": 121.37990399882975
  },
  {
    "id": 233,
    "nameZh": "瑞芳分局",
    "nameEn": "Ruifang Police Precinct",
    "address": "新北市瑞芳區明燈路3段25號",
    "phone": "02  24062602",
    "latitude": 25.10760499681591,
    "longitude": 121.80772699924361
  },
  {
    "id": 234,
    "nameZh": "九份派出所",
    "nameEn": "Jiufen Police Station",
    "address": "新北市瑞芳區豎崎路24號",
    "phone": "02  24972609",
    "latitude": 25.10962357685859,
    "longitude": 121.84322614986083
  },
  {
    "id": 235,
    "nameZh": "吉林派出所",
    "nameEn": "Jilin Police Station",
    "address": "新北市貢寮區枋腳街4號",
    "phone": "02  24941534",
    "latitude": 25.00462078472136,
    "longitude": 121.88694949116443
  },
  {
    "id": 236,
    "nameZh": "四腳亭派出所",
    "nameEn": "Sijiaoting  Police  Station",
    "address": "新北市瑞芳區瑞竹路124號",
    "phone": "02  24576947",
    "latitude": 25.104219001371664,
    "longitude": 121.7619620006684
  },
  {
    "id": 237,
    "nameZh": "金瓜石派出所",
    "nameEn": "Jinguash Police Station",
    "address": "新北市瑞芳區金光路51號",
    "phone": "02  24961528",
    "latitude": 25.108318996986746,
    "longitude": 121.85775699998702
  },
  {
    "id": 238,
    "nameZh": "牡丹派出所",
    "nameEn": "Mudan Police Staion",
    "address": "新北市雙溪區牡丹里牡丹106號",
    "phone": "02  24931340",
    "latitude": 25.05991299521831,
    "longitude": 121.8498020037327
  },
  {
    "id": 239,
    "nameZh": "澳底派出所",
    "nameEn": "Aodi Police Station",
    "address": "新北市貢寮區延平街36號",
    "phone": "02  24901074",
    "latitude": 25.056396998059338,
    "longitude": 121.92462900036864
  },
  {
    "id": 240,
    "nameZh": "東勢格派出所",
    "nameEn": "Dongshige Police Station",
    "address": "新北市平溪區東勢里東勢格1號",
    "phone": "02  24951379",
    "latitude": 25.0051129996396,
    "longitude": 121.74968199978359
  },
  {
    "id": 241,
    "nameZh": "柑腳派出所",
    "nameEn": "Ganjiao Police Station",
    "address": "新北市雙溪區長源里柑腳19號",
    "phone": "02  24931744",
    "latitude": 25.01459200000834,
    "longitude": 121.80491100089827
  },
  {
    "id": 242,
    "nameZh": "福隆派出所",
    "nameEn": "Fulong Police Station",
    "address": "新北市貢寮區福隆街19號",
    "phone": "02  24991541",
    "latitude": 25.016500999456927,
    "longitude": 121.94475399856704
  },
  {
    "id": 243,
    "nameZh": "鼻頭派出所",
    "nameEn": "Bitou Police Station",
    "address": "新北市瑞芳區鼻頭路101號",
    "phone": "02  24911579",
    "latitude": 25.123711001592607,
    "longitude": 121.91604499719422
  },
  {
    "id": 244,
    "nameZh": "瑞濱派出所",
    "nameEn": "Ruibin  Police Station",
    "address": "新北市瑞芳區建基路1段5之1號",
    "phone": "02  24972009",
    "latitude": 25.120998995950902,
    "longitude": 121.81960400413875
  },
  {
    "id": 245,
    "nameZh": "猴硐派出所",
    "nameEn": "Houtong Police Station",
    "address": "新北市瑞芳區九芎橋路96號",
    "phone": "02  24972527",
    "latitude": 25.09336800338542,
    "longitude": 121.83327099522906
  },
  {
    "id": 246,
    "nameZh": "大寮派出所",
    "nameEn": "Daliao Police Station",
    "address": "新北市瑞芳區魚桀魚坑路278號",
    "phone": "02  24972608",
    "latitude": 25.106851221290107,
    "longitude": 121.78738461907494
  },
  {
    "id": 247,
    "nameZh": "卯澳派出所",
    "nameEn": "Maoao Police Station",
    "address": "新北市貢寮區福連街18號",
    "phone": "02  24991540",
    "latitude": 25.012919000423473,
    "longitude": 121.9878829970414
  },
  {
    "id": 248,
    "nameZh": "和美派出所",
    "nameEn": "Hemei Police Station",
    "address": "新北市貢寮區和美街30號",
    "phone": "02  24901504",
    "latitude": 25.082961002853466,
    "longitude": 121.91361300159281
  },
  {
    "id": 249,
    "nameZh": "太平派出所",
    "nameEn": "Taiping Police Station",
    "address": "新北市雙溪區大平路62號",
    "phone": "02  24933317",
    "latitude": 24.971549050156078,
    "longitude": 121.82579847824057
  },
  {
    "id": 250,
    "nameZh": "貢寮分駐所",
    "nameEn": "Gongliao Police Station",
    "address": "新北市貢寮區朝陽街56號",
    "phone": "02  24941304",
    "latitude": 25.021861002085434,
    "longitude": 121.91021799708396
  },
  {
    "id": 251,
    "nameZh": "十分派出所",
    "nameEn": "Shifen Police Station",
    "address": "新北市平溪區十分街283號",
    "phone": "02  24958128",
    "latitude": 25.045631998197877,
    "longitude": 121.7788330036956
  },
  {
    "id": 252,
    "nameZh": "平溪分駐所",
    "nameEn": "Pingxi Police Station",
    "address": "新北市平溪區平溪街43之1號",
    "phone": "02  24951063",
    "latitude": 25.026209001344554,
    "longitude": 121.73842500256464
  },
  {
    "id": 253,
    "nameZh": "平林派出所",
    "nameEn": "Pingglin Police Station",
    "address": "新北市雙溪區上林里內平林47號",
    "phone": "02  24931794",
    "latitude": 25.030365996044303,
    "longitude": 121.83308400261237
  },
  {
    "id": 254,
    "nameZh": "雙溪分駐所",
    "nameEn": "Shuangxi Police Station",
    "address": "新北市雙溪區太平路64號\n(臨時駐地：新北市貢寮區福隆街2號)",
    "phone": "02 24931059\n02 24975034",
    "latitude": 25.016028994791125,
    "longitude": 121.94488299538763
  },
  {
    "id": 255,
    "nameZh": "水湳洞派出所",
    "nameEn": "Shuinandong Police Station",
    "address": "新北市瑞芳區洞頂路8號",
    "phone": "02  24961529",
    "latitude": 25.121619998581966,
    "longitude": 121.86192599517415
  },
  {
    "id": 256,
    "nameZh": "瑞芳派出所",
    "nameEn": "Ruei-Fang Police Station",
    "address": "新北市瑞芳區明燈路3段25號",
    "phone": "02  24972141",
    "latitude": 25.10760499681591,
    "longitude": 121.80772699924361
  },
  {
    "id": 257,
    "nameZh": "蘆洲分局",
    "nameEn": "Luzhou Police Precinct",
    "address": "新北市蘆洲區三民路609號",
    "phone": "02  22810555",
    "latitude": 25.0855183042665,
    "longitude": 121.46108294810521
  },
  {
    "id": 258,
    "nameZh": "延平派出所",
    "nameEn": "Yanping Police Station",
    "address": "新北市蘆洲區長安街108巷2號",
    "phone": "02  82821991",
    "latitude": 25.08184199531033,
    "longitude": 121.46142199821337
  },
  {
    "id": 259,
    "nameZh": "更寮派出所",
    "nameEn": "Gengliao Police Station",
    "address": "新北市五股區中興路2段147號",
    "phone": "02  29711126",
    "latitude": 25.077923000866104,
    "longitude": 121.4584230008879
  },
  {
    "id": 260,
    "nameZh": "成州派出所",
    "nameEn": "Chengzhou Police Station",
    "address": "新北市五股區新五路3段342號",
    "phone": "02  22921296",
    "latitude": 25.091711995382767,
    "longitude": 121.4477389982998
  },
  {
    "id": 261,
    "nameZh": "龍源派出所",
    "nameEn": "Longyuan Police Station",
    "address": "新北市八里區龍米路1段225號",
    "phone": "02  26182245",
    "latitude": 25.13234899716671,
    "longitude": 121.45136299911007
  },
  {
    "id": 262,
    "nameZh": "五股分駐所",
    "nameEn": "Wugu Police Station",
    "address": "新北市五股區中興路4段67號",
    "phone": "02  22916948",
    "latitude": 25.08350700169897,
    "longitude": 121.43681100198033
  },
  {
    "id": 263,
    "nameZh": "八里分駐所",
    "nameEn": "Bali Police Station",
    "address": "新北市八里區訊塘路37號",
    "phone": "02  26101315",
    "latitude": 25.14597299747791,
    "longitude": 121.39752699885452
  },
  {
    "id": 264,
    "nameZh": "三民派出所",
    "nameEn": "Sanmin Police Station",
    "address": "新北市蘆洲區三民路609號",
    "phone": "02  22823775",
    "latitude": 25.0855183042665,
    "longitude": 121.46108294810521
  },
  {
    "id": 265,
    "nameZh": "蘆洲派出所",
    "nameEn": "Luzhou Police Station",
    "address": "新北市蘆洲區中山二路92號",
    "phone": "02  22813358",
    "latitude": 25.08195500221119,
    "longitude": 121.47288500289483
  },
  {
    "id": 266,
    "nameZh": "德音派出所",
    "nameEn": "Deyin Police Station",
    "address": "新北市五股區水碓二路1號1樓",
    "phone": "02  82923789",
    "latitude": 25.07127499992645,
    "longitude": 121.43045999557691
  },
  {
    "id": 267,
    "nameZh": "集賢派出所",
    "nameEn": "Jixian Police Station",
    "address": "新北市蘆洲區仁義里集賢路245號1樓",
    "phone": "02  82832110",
    "latitude": 25.08483000053856,
    "longitude": 121.48162199576852
  },
  {
    "id": 268,
    "nameZh": "金山分局",
    "nameEn": "Jinshan Police Precinct",
    "address": "新北市金山區民生路65號",
    "phone": "02  24986532",
    "latitude": 25.220338001649505,
    "longitude": 121.64069599811357
  },
  {
    "id": 269,
    "nameZh": "中角派出所",
    "nameEn": "ZhongJiao Police Station",
    "address": "新北市石門區阿里荖14之1號",
    "phone": "02  24982136",
    "latitude": 25.27979514021019,
    "longitude": 121.60843343341088
  },
  {
    "id": 270,
    "nameZh": "崁腳派出所",
    "nameEn": "KanJiao Police Station",
    "address": "新北市萬里區崁腳路38號",
    "phone": "02  24922740",
    "latitude": 25.160454820430434,
    "longitude": 121.65073213254122
  },
  {
    "id": 271,
    "nameZh": "重光派出所",
    "nameEn": "Chongguang Police Station",
    "address": "新北市金山區重和里茅埔頭8號",
    "phone": "02  24080470",
    "latitude": 25.216243995312336,
    "longitude": 121.60393899532356
  },
  {
    "id": 272,
    "nameZh": "乾華派出所",
    "nameEn": "Qianhua Police Station",
    "address": "新北市石門區草里里阿里荖14之1號",
    "phone": "02  26381274",
    "latitude": 25.279794997571038,
    "longitude": 121.60843299581806
  },
  {
    "id": 273,
    "nameZh": "野柳派出所",
    "nameEn": "Yeliu Police Station",
    "address": "新北市萬里區野柳里港西9號",
    "phone": "02  24922510",
    "latitude": 25.20380830778849,
    "longitude": 121.68499739775325
  },
  {
    "id": 274,
    "nameZh": "老梅派出所",
    "nameEn": "Laomei Police Station",
    "address": "新北市石門區老梅里老梅路26號",
    "phone": "02  26381253",
    "latitude": 25.28899000366255,
    "longitude": 121.5455800019855
  },
  {
    "id": 275,
    "nameZh": "大鵬派出所",
    "nameEn": "Dapeng Police Station",
    "address": "新北市萬里區大鵬里加投路81號",
    "phone": "02  24982475",
    "latitude": 25.212418997250992,
    "longitude": 121.64670300242962
  },
  {
    "id": 276,
    "nameZh": "石門分駐所",
    "nameEn": "Shimen Police Station",
    "address": "新北市石門區中山路64號",
    "phone": "02  26381244",
    "latitude": 25.290810001627758,
    "longitude": 121.56741900408858
  },
  {
    "id": 277,
    "nameZh": "金山派出所",
    "nameEn": "Jinshan Police Station",
    "address": "新北市金山區民生路65號",
    "phone": "02  24982009",
    "latitude": 25.220338001649505,
    "longitude": 121.64069599811357
  },
  {
    "id": 278,
    "nameZh": "萬里分駐所",
    "nameEn": "WanLi Police Station",
    "address": "新北市萬里區瑪鋉路153號",
    "phone": "02  24922122",
    "latitude": 25.17801799529535,
    "longitude": 121.68957199953819
  },
  {
    "id": 279,
    "nameZh": "海山分局",
    "nameEn": "Haishan Police Precinct",
    "address": "新北市板橋區漢生東路195號",
    "phone": "02  29640322",
    "latitude": 25.011454999141012,
    "longitude": 121.47002800358696
  },
  {
    "id": 280,
    "nameZh": "海山派出所",
    "nameEn": "Haishan Police Station",
    "address": "新北市板橋區漢生東路195號",
    "phone": "02  29574370",
    "latitude": 25.011454999141012,
    "longitude": 121.47002800358696
  },
  {
    "id": 281,
    "nameZh": "新海派出所",
    "nameEn": "Xinhai Police Station",
    "address": "新北市板橋區英士路151號",
    "phone": "02  22586867",
    "latitude": 25.02404400087287,
    "longitude": 121.45995400250928
  },
  {
    "id": 282,
    "nameZh": "埔墘派出所",
    "nameEn": "Puqian Police Station",
    "address": "新北市板橋區中山路2段286號",
    "phone": "02  29616814",
    "latitude": 25.018711997532723,
    "longitude": 121.47958800217461
  },
  {
    "id": 283,
    "nameZh": "江翠派出所",
    "nameEn": "Jiangcui Police Station",
    "address": "新北市板橋區吳鳳路50巷36號",
    "phone": "02  22521225",
    "latitude": 25.03030299886453,
    "longitude": 121.46986000252453
  },
  {
    "id": 284,
    "nameZh": "文聖派出所",
    "nameEn": "Wensheng Police Station",
    "address": "新北市板橋區大同街14號",
    "phone": "02 22583956",
    "latitude": 25.026871001125386,
    "longitude": 121.47736599867713
  },
  {
    "id": 285,
    "nameZh": "桃園市政府警察局",
    "nameEn": "Taoyuan Police Department",
    "address": "桃園市桃園區縣府路3號",
    "phone": "03 3334400",
    "latitude": 24.993357000392827,
    "longitude": 121.3020370018286
  },
  {
    "id": 286,
    "nameZh": "桃園分局",
    "nameEn": "Taoyuan Police Police Precinct",
    "address": "桃園市桃園區力行路258號",
    "phone": "03 3323811",
    "latitude": 25.000228001280593,
    "longitude": 121.29895299649462
  },
  {
    "id": 287,
    "nameZh": "大樹派出所",
    "nameEn": "Dashu Police Station",
    "address": "桃園市桃園區樹仁二街41號",
    "phone": "03 3622987",
    "latitude": 24.978038001001423,
    "longitude": 121.32022699718037
  },
  {
    "id": 288,
    "nameZh": "埔子派出所",
    "nameEn": "Puzi Police Station",
    "address": "桃園市桃園區力行路258號",
    "phone": "03 3353692",
    "latitude": 25.000228001280593,
    "longitude": 121.29895299649462
  },
  {
    "id": 289,
    "nameZh": "青溪派出所",
    "nameEn": "Qingxi Police Station",
    "address": "桃園市桃園區鎮撫街39號",
    "phone": "03 3332742",
    "latitude": 24.9980659957511,
    "longitude": 121.31424100489147
  },
  {
    "id": 290,
    "nameZh": "中路派出所",
    "nameEn": "Zhonglu Police Station",
    "address": "桃園市桃園區縣府路51號",
    "phone": "03 3578385",
    "latitude": 24.993245001767185,
    "longitude": 121.29972100446146
  },
  {
    "id": 291,
    "nameZh": "景福派出所",
    "nameEn": "Jingfu Police Station",
    "address": "桃園市桃園區民族路110號",
    "phone": "03 3578385",
    "latitude": 24.992642999623826,
    "longitude": 121.30909599632216
  },
  {
    "id": 292,
    "nameZh": "武陵派出所",
    "nameEn": "Wuling Police Station",
    "address": "桃園市桃園區復興路137號\n(臨時駐地：桃園市桃園區朝陽街1段58號)",
    "phone": "03 3364224",
    "latitude": 24.992922002779473,
    "longitude": 121.31424600331
  },
  {
    "id": 293,
    "nameZh": "同安派出所",
    "nameEn": "Tongan Police Station",
    "address": "桃園市桃園區經國路799號",
    "phone": "03 3568289",
    "latitude": 25.02796400060907,
    "longitude": 121.30052300313419
  },
  {
    "id": 294,
    "nameZh": "龍安派出所",
    "nameEn": "Longan Police Station",
    "address": "桃園市桃園區國豐一街101號",
    "phone": "03 3601975",
    "latitude": 24.990631999712914,
    "longitude": 121.28104899947128
  },
  {
    "id": 295,
    "nameZh": "小檜溪派出所",
    "nameEn": "Xiaokuaixi  Police Station",
    "address": "桃園市桃園區民光東路286號",
    "phone": "03 3580110",
    "latitude": 25.006748003489083,
    "longitude": 121.31305700263692
  },
  {
    "id": 296,
    "nameZh": "大園分局",
    "nameEn": "Dayuan Police Percinct",
    "address": "桃園市大園區中正西路13號",
    "phone": "03 3862009",
    "latitude": 25.063447999799763,
    "longitude": 121.1958649998189
  },
  {
    "id": 297,
    "nameZh": "潮音派出所",
    "nameEn": "Chao-Yin Police Station",
    "address": "桃園市大園區潮音北路473號",
    "phone": "03 3862314",
    "latitude": 25.08115399967606,
    "longitude": 121.17129699639399
  },
  {
    "id": 298,
    "nameZh": "觀音分駐所",
    "nameEn": "Guan-Yin Police Station",
    "address": "桃園市觀音區中山路14號",
    "phone": "03 4732025",
    "latitude": 25.03653100287404,
    "longitude": 121.08205799773339
  },
  {
    "id": 299,
    "nameZh": "草漯派出所",
    "nameEn": "Caota Police Station",
    "address": "桃園市觀音區大觀路2段77號",
    "phone": "03 4830301",
    "latitude": 25.047235995796242,
    "longitude": 121.1430300038974
  },
  {
    "id": 300,
    "nameZh": "新坡派出所",
    "nameEn": "Xinpo Police Station",
    "address": "桃園市觀音區中山路2段668號",
    "phone": "03 4981001",
    "latitude": 25.01261600076596,
    "longitude": 121.13617699818428
  },
  {
    "id": 301,
    "nameZh": "竹圍派出所",
    "nameEn": "Zhuwei Police Station",
    "address": "桃園市大園區竹圍街10號",
    "phone": "03 3835089",
    "latitude": 25.103960995406975,
    "longitude": 121.24376800246512
  },
  {
    "id": 302,
    "nameZh": "埔心派出所",
    "nameEn": "Puxin Police Station",
    "address": "桃園市大園區埔心街1號",
    "phone": "03 3811684",
    "latitude": 25.05440334812373,
    "longitude": 121.22428150913976
  },
  {
    "id": 303,
    "nameZh": "大園派出所",
    "nameEn": "Dayuan Police Station",
    "address": "桃園市大園區中正西路13號",
    "phone": "03 3862804",
    "latitude": 25.063447999799763,
    "longitude": 121.1958649998189
  },
  {
    "id": 304,
    "nameZh": "三菓派出所",
    "nameEn": "Sanguo Police Station",
    "address": "桃園市大園區三和路25號",
    "phone": "03 3936118",
    "latitude": 25.073178997075793,
    "longitude": 121.25723099857088
  },
  {
    "id": 305,
    "nameZh": "蘆竹分局",
    "nameEn": "Lujhu  Police Precinet",
    "address": "桃園市蘆竹區南崁路177號",
    "phone": "03 2220307",
    "latitude": 25.047419002704977,
    "longitude": 121.2937919984373
  },
  {
    "id": 306,
    "nameZh": "南崁派出所",
    "nameEn": "NanKan Police Station",
    "address": "桃園市蘆竹區南崁路177號",
    "phone": "03 3223981",
    "latitude": 25.047419002704977,
    "longitude": 121.2937919984373
  },
  {
    "id": 307,
    "nameZh": "大竹派出所",
    "nameEn": "Dajhu Police Station",
    "address": "桃園市蘆竹區大竹路540號",
    "phone": "03 3232704",
    "latitude": 25.024214999311674,
    "longitude": 121.2594689998982
  },
  {
    "id": 308,
    "nameZh": "南竹派出所",
    "nameEn": "Nanjhu Police Station",
    "address": "桃園市蘆竹區南竹路2段99號",
    "phone": "03 3121090",
    "latitude": 25.041372997967088,
    "longitude": 121.2847920019735
  },
  {
    "id": 309,
    "nameZh": "外社派出所",
    "nameEn": "Waishe Police Station",
    "address": "桃園市蘆竹區山林路2段405號",
    "phone": "03 3241749",
    "latitude": 25.083490003633408,
    "longitude": 121.3041820025682
  },
  {
    "id": 310,
    "nameZh": "大溪分局",
    "nameEn": "Daxi Police Police Precinct",
    "address": "桃園市大溪區復興路一段385號",
    "phone": "03 3887643",
    "latitude": 24.857839995310034,
    "longitude": 121.29506700151703
  },
  {
    "id": 311,
    "nameZh": "復興分駐所",
    "nameEn": "Fuxing  Police Station",
    "address": "桃園市復興區中正路2號",
    "phone": "03 3822604",
    "latitude": 24.814180996809178,
    "longitude": 121.35098800072701
  },
  {
    "id": 312,
    "nameZh": "羅浮派出所",
    "nameEn": "Luofu Police Station",
    "address": "桃園市復興區羅浮里3鄰3號",
    "phone": "03 3822606",
    "latitude": 24.79936800158011,
    "longitude": 121.36569500062103
  },
  {
    "id": 313,
    "nameZh": "榮華派出所",
    "nameEn": "Ronghua Police Station",
    "address": "桃園市復興區高義里11鄰卡義蘭2號",
    "phone": "03 3821016",
    "latitude": 24.73917299525642,
    "longitude": 121.34768000385536
  },
  {
    "id": 314,
    "nameZh": "巴陵派出所",
    "nameEn": "Baling Police Station",
    "address": "桃園市復興區華陵里9鄰44號",
    "phone": "03 3912180",
    "latitude": 24.685986019258664,
    "longitude": 121.39860456545749
  },
  {
    "id": 315,
    "nameZh": "奎輝派出所",
    "nameEn": "Kuihui Police Station",
    "address": "桃園市復興區奎輝里4鄰37號",
    "phone": "03 3822960",
    "latitude": 24.796099042778582,
    "longitude": 121.33513158899916
  },
  {
    "id": 316,
    "nameZh": "三光派出所",
    "nameEn": "Sanguang Police Station",
    "address": "桃園市復興區三光里7鄰武道能敢32號",
    "phone": "03 3912258",
    "latitude": 24.67241006258671,
    "longitude": 121.36732008683406
  },
  {
    "id": 317,
    "nameZh": "光華派出所",
    "nameEn": "Guanghua Police Station",
    "address": "桃園市復興區華陵里哈嘎灣10號",
    "phone": "03 3912253",
    "latitude": 24.655406997557886,
    "longitude": 121.3992180015332
  },
  {
    "id": 318,
    "nameZh": "霞雲派出所",
    "nameEn": "Xiayun Police Station",
    "address": "桃園市復興區霞雲里6鄰21號",
    "phone": "03 3822607",
    "latitude": 24.81661090302715,
    "longitude": 121.38386819843613
  },
  {
    "id": 319,
    "nameZh": "長興派出所",
    "nameEn": "Changxing Police Station",
    "address": "桃園市復興區長興里16鄰29號",
    "phone": "03 3822961",
    "latitude": 24.799633199157455,
    "longitude": 121.30707874728357
  },
  {
    "id": 320,
    "nameZh": "溪內派出所",
    "nameEn": "Xinei Police Station",
    "address": "桃園市復興區羅浮里河流2鄰51之2號",
    "phone": "03 3822958",
    "latitude": 24.803391003686492,
    "longitude": 121.36796697753145
  },
  {
    "id": 321,
    "nameZh": "三元派出所",
    "nameEn": "Sanyuan Police Station",
    "address": "桃園市大溪區石園路53號",
    "phone": "03 3801040",
    "latitude": 24.880651003027555,
    "longitude": 121.26530500226812
  },
  {
    "id": 322,
    "nameZh": "圳頂派出所",
    "nameEn": "Zunding Police Station",
    "address": "桃園市大溪區公園路46號",
    "phone": "03 3801287",
    "latitude": 24.905037997118075,
    "longitude": 121.28380600319174
  },
  {
    "id": 323,
    "nameZh": "內柵派出所",
    "nameEn": "Neizha Police Station",
    "address": "桃園市大溪區內柵路1段56號",
    "phone": "03 3883849",
    "latitude": 24.85933199498397,
    "longitude": 121.28123699765274
  },
  {
    "id": 324,
    "nameZh": "中新派出所",
    "nameEn": "Zhongxin Police Station",
    "address": "桃園市大溪區大鶯路1479號",
    "phone": "03 3801853",
    "latitude": 24.930281998853566,
    "longitude": 121.31836900065764
  },
  {
    "id": 325,
    "nameZh": "百吉派出所",
    "nameEn": "Baiji Police Station",
    "address": "桃園市大溪區復興路二段209號",
    "phone": "03 3885884",
    "latitude": 24.82511999585757,
    "longitude": 121.30929899556259
  },
  {
    "id": 326,
    "nameZh": "三民派出所",
    "nameEn": "Sanmin Police Station",
    "address": "桃園市復興區三民里水流東路43號",
    "phone": "03 3825605",
    "latitude": 24.83221261242346,
    "longitude": 121.33113549704207
  },
  {
    "id": 327,
    "nameZh": "三層派出所",
    "nameEn": "Sanceng Police Station",
    "address": "桃園市大溪區復興路1段890號",
    "phone": "03 3882349",
    "latitude": 24.84920099600478,
    "longitude": 121.28669400331177
  },
  {
    "id": 328,
    "nameZh": "永福派出所",
    "nameEn": "Yongfu Police Station",
    "address": "桃園市大溪區信義路1127號",
    "phone": "03 3885802",
    "latitude": 24.894181996780073,
    "longitude": 121.32406699505465
  },
  {
    "id": 329,
    "nameZh": "南雅派出所",
    "nameEn": "Nanya Police Station",
    "address": "桃園市大溪區復興路66號",
    "phone": "03 3883720",
    "latitude": 24.87970900273782,
    "longitude": 121.29029099945222
  },
  {
    "id": 330,
    "nameZh": "福安派出所",
    "nameEn": "Fuan Police Station",
    "address": "桃園市大溪區福安里猴洞坑19之2號",
    "phone": "03 3888767",
    "latitude": 24.849218147995778,
    "longitude": 121.28653979352221
  },
  {
    "id": 331,
    "nameZh": "中壢分局",
    "nameEn": "Zhongli Police Police Precinct",
    "address": "桃園市中壢區延平路607號",
    "phone": "03 4221460",
    "latitude": 24.95408999941848,
    "longitude": 121.22238100484665
  },
  {
    "id": 332,
    "nameZh": "文化派出所",
    "nameEn": "Wenhua Police Station",
    "address": "桃園市中壢區吉林路60號",
    "phone": "03 4528348",
    "latitude": 24.97900500293568,
    "longitude": 121.24532300224222
  },
  {
    "id": 333,
    "nameZh": "仁愛派出所",
    "nameEn": "Renai Police Station",
    "address": "桃園市中壢區華美一路101號",
    "phone": "03 4563524",
    "latitude": 24.954856594093396,
    "longitude": 121.25592877363692
  },
  {
    "id": 334,
    "nameZh": "興國派出所",
    "nameEn": "Xingguo Police Station",
    "address": "桃園市中壢區志廣路38號",
    "phone": "03 4258325",
    "latitude": 24.960591999517174,
    "longitude": 121.20870199528501
  },
  {
    "id": 335,
    "nameZh": "龍興派出所",
    "nameEn": "Longxing Police Station",
    "address": "桃園市中壢區龍勇路141號",
    "phone": "03 4285776",
    "latitude": 24.938441000587005,
    "longitude": 121.23454499556391
  },
  {
    "id": 336,
    "nameZh": "大崙派出所",
    "nameEn": "Dalun Police Station",
    "address": "桃園市中壢區崇德路137號",
    "phone": "03 4982260",
    "latitude": 24.9901260012164,
    "longitude": 121.18102999878884
  },
  {
    "id": 337,
    "nameZh": "中福派出所",
    "nameEn": "Zhongfu Police Station",
    "address": "桃園市中壢區南園二路86號",
    "phone": "03 4523093",
    "latitude": 24.97180600069526,
    "longitude": 121.23343299744057
  },
  {
    "id": 338,
    "nameZh": "內壢派出所",
    "nameEn": "Neili Police Station",
    "address": "桃園市中壢區興農路28號",
    "phone": "03 4553845",
    "latitude": 24.972640678283476,
    "longitude": 121.2553741790327
  },
  {
    "id": 339,
    "nameZh": "普仁派出所",
    "nameEn": "Puren Police Station",
    "address": "桃園市中壢區中山東路二段361號",
    "phone": "03 4562912",
    "latitude": 24.949286997110487,
    "longitude": 121.24316300000936
  },
  {
    "id": 340,
    "nameZh": "中壢派出所",
    "nameEn": "Zhongli Police Station",
    "address": "桃園市中壢區延平路607號",
    "phone": "03 4222030",
    "latitude": 24.95408999941848,
    "longitude": 121.22238100484665
  },
  {
    "id": 341,
    "nameZh": "自強派出所",
    "nameEn": "Ziqiang Police Station",
    "address": "桃園市中壢區強國路68號",
    "phone": "03 2854333",
    "latitude": 24.96796300133046,
    "longitude": 121.25842100335875
  },
  {
    "id": 342,
    "nameZh": "青埔派出所",
    "nameEn": "Qingpu Police Station",
    "address": "桃園市中壢區青埔路1段67號",
    "phone": "03 4531468",
    "latitude": 25.013956999831937,
    "longitude": 121.2105129989515
  },
  {
    "id": 343,
    "nameZh": "楊梅分局",
    "nameEn": "Yangmei  Police Police Precinct",
    "address": "桃園市楊梅區中山路123號",
    "phone": "03 4755749",
    "latitude": 24.906810003529422,
    "longitude": 121.14608899613634
  },
  {
    "id": 344,
    "nameZh": "頭洲派出所",
    "nameEn": "TouJhou Police Station",
    "address": "桃園市新屋區頭洲里中山東路二段757號",
    "phone": "03 4909508",
    "latitude": 24.963051998438154,
    "longitude": 121.14623800287113
  },
  {
    "id": 345,
    "nameZh": "幼獅派出所",
    "nameEn": "Youshi Police Station",
    "address": "桃園市楊梅區幼獅路1段458號",
    "phone": "03 4643521",
    "latitude": 24.926455002077258,
    "longitude": 121.17479099635534
  },
  {
    "id": 346,
    "nameZh": "上湖派出所",
    "nameEn": "Shanghu Police Station",
    "address": "桃園市楊梅區楊湖路3段239號",
    "phone": "03 4721721",
    "latitude": 24.912623996320917,
    "longitude": 121.09490900166546
  },
  {
    "id": 347,
    "nameZh": "新屋分駐所",
    "nameEn": "Xinwu Police Station",
    "address": "桃園市新屋區中山路241號",
    "phone": "03 4772014",
    "latitude": 24.972359001497892,
    "longitude": 121.10659600297379
  },
  {
    "id": 348,
    "nameZh": "永安派出所",
    "nameEn": "Yongan Police Station",
    "address": "桃園市新屋區中山西路3段62號",
    "phone": "03 4861092",
    "latitude": 24.987565999033855,
    "longitude": 121.04485000409416
  },
  {
    "id": 349,
    "nameZh": "大坡派出所",
    "nameEn": "Dapo Police Station",
    "address": "桃園市新屋區三角堀94號",
    "phone": "03 4768410",
    "latitude": 24.959114822851287,
    "longitude": 121.03853042361995
  },
  {
    "id": 350,
    "nameZh": "富岡派出所",
    "nameEn": "Fugang Police Station",
    "address": "桃園市楊梅區富源街22號",
    "phone": "03 4721794",
    "latitude": 24.935540998689397,
    "longitude": 121.08182800214028
  },
  {
    "id": 351,
    "nameZh": "草湳派出所",
    "nameEn": "Caonan Police Station",
    "address": "桃園市楊梅區永美路237號",
    "phone": "03 4826278",
    "latitude": 24.918626000469327,
    "longitude": 121.18363299676037
  },
  {
    "id": 352,
    "nameZh": "楊梅派出所",
    "nameEn": "Yangmei Police Station",
    "address": "桃園市楊梅區中山路123號",
    "phone": "03 4782007",
    "latitude": 24.906810003529422,
    "longitude": 121.14608899613634
  },
  {
    "id": 353,
    "nameZh": "平鎮分局",
    "nameEn": "Pingjhen Police Police Precinct",
    "address": "桃園市平鎮區中庸路123號",
    "phone": "03 4390218",
    "latitude": 24.913052003559514,
    "longitude": 121.20754999864977
  },
  {
    "id": 354,
    "nameZh": "北勢派出所",
    "nameEn": "Pei-Shih Police Station",
    "address": "桃園市平鎮區振平街228號",
    "phone": "03 4282206",
    "latitude": 24.94192500110212,
    "longitude": 121.22081699664132
  },
  {
    "id": 355,
    "nameZh": "宋屋派出所",
    "nameEn": "Sungwu Police Station",
    "address": "桃園市平鎮區延平路2段412號",
    "phone": "03 4938381",
    "latitude": 24.94273699673285,
    "longitude": 121.20628399574211
  },
  {
    "id": 356,
    "nameZh": "平鎮派出所",
    "nameEn": "Pingjhen Police Station",
    "address": "桃園市平鎮區中庸路123號",
    "phone": "03 4391280",
    "latitude": 24.913052003559514,
    "longitude": 121.20754999864977
  },
  {
    "id": 357,
    "nameZh": "建安派出所",
    "nameEn": "Jianan Police Station",
    "address": "桃園市平鎮區金陵路5段108號",
    "phone": "03 4502331",
    "latitude": 24.90918100180255,
    "longitude": 121.23112599677185
  },
  {
    "id": 358,
    "nameZh": "龍岡派出所",
    "nameEn": "Lunggang Police Station",
    "address": "桃園市平鎮區龍南路141號",
    "phone": "03 4503245",
    "latitude": 24.923885998298633,
    "longitude": 121.24726399735535
  },
  {
    "id": 359,
    "nameZh": "龜山分局",
    "nameEn": "Guishan Police Police Precinct",
    "address": "桃園市龜山區自強南路123號",
    "phone": "03 3292701",
    "latitude": 24.991464000378958,
    "longitude": 121.33796800013283
  },
  {
    "id": 360,
    "nameZh": "龜山派出所",
    "nameEn": "Guishan Police Station",
    "address": "桃園市龜山區萬壽路2段931號",
    "phone": "03 3202554",
    "latitude": 24.99531399665762,
    "longitude": 121.33888100066406
  },
  {
    "id": 361,
    "nameZh": "大林派出所",
    "nameEn": "Dalin Police Station",
    "address": "桃園市龜山區中興路158號",
    "phone": "03 3500070",
    "latitude": 24.9889759965235,
    "longitude": 121.33233400237725
  },
  {
    "id": 362,
    "nameZh": "大坑派出所",
    "nameEn": "Dakeng Police Station",
    "address": "桃園市龜山區大坑路一段851號",
    "phone": "03 3251310",
    "latitude": 25.04527999810853,
    "longitude": 121.31465300472932
  },
  {
    "id": 363,
    "nameZh": "大埔派出所",
    "nameEn": "Dapu Police Station",
    "address": "桃園市龜山區文德二路80號",
    "phone": "03 3291735",
    "latitude": 25.053328995775292,
    "longitude": 121.38171600435703
  },
  {
    "id": 364,
    "nameZh": "迴龍派出所",
    "nameEn": "Hueilong Police Station",
    "address": "桃園市龜山區龍鳳街32巷6號1樓",
    "phone": "02 82006815",
    "latitude": 25.01908900361737,
    "longitude": 121.40542100323849
  },
  {
    "id": 365,
    "nameZh": "坪頂派出所",
    "nameEn": "Pingding Police Station",
    "address": "桃園市龜山區文三二街66巷55號",
    "phone": "03 3282570",
    "latitude": 25.05678099976849,
    "longitude": 121.35929099793717
  },
  {
    "id": 366,
    "nameZh": "大華派出所",
    "nameEn": "Dahwa Police Station",
    "address": "桃園市龜山區文化七路135號",
    "phone": "03 3975557",
    "latitude": 25.051821994746415,
    "longitude": 121.36546500204801
  },
  {
    "id": 367,
    "nameZh": "八德分局",
    "nameEn": "Bade Police Police Precinct",
    "address": "桃園市八德區興豐路1216號",
    "phone": "03 3731907",
    "latitude": 24.938233997694418,
    "longitude": 121.30906700171239
  },
  {
    "id": 368,
    "nameZh": "八德派出所",
    "nameEn": "Bade Police Station",
    "address": "桃園市八德區興豐路1216號",
    "phone": "03 3682802",
    "latitude": 24.938233997694418,
    "longitude": 121.30906700171239
  },
  {
    "id": 369,
    "nameZh": "廣興派出所",
    "nameEn": "Guangxing Police Station",
    "address": "桃園市八德區廣興路829號",
    "phone": "03 3775127",
    "latitude": 24.950180000483652,
    "longitude": 121.28377200288705
  },
  {
    "id": 370,
    "nameZh": "四維派出所",
    "nameEn": "Siwei Police Station",
    "address": "桃園市八德區重慶街148號",
    "phone": "03 3662771",
    "latitude": 24.955914998793858,
    "longitude": 121.302802002807
  },
  {
    "id": 371,
    "nameZh": "高明派出所",
    "nameEn": "Gaoming Police Station",
    "address": "桃園市八德區永豐路160號",
    "phone": "03 3771790",
    "latitude": 24.96478999658474,
    "longitude": 121.27871800101826
  },
  {
    "id": 372,
    "nameZh": "大安派出所",
    "nameEn": "Daan Police Station",
    "address": "桃園市八德區和平路頂僑巷25號",
    "phone": "03 3644106",
    "latitude": 24.97060142797743,
    "longitude": 121.3248314848519
  },
  {
    "id": 373,
    "nameZh": "龍潭分局",
    "nameEn": "Longtan Police  Police Precinct",
    "address": "桃園市龍潭區干城路21號",
    "phone": "03 4890831",
    "latitude": 24.868603997867442,
    "longitude": 121.20755900422886
  },
  {
    "id": 374,
    "nameZh": "三和派出所",
    "nameEn": "Sanhe Police Station",
    "address": "桃園市龍潭區龍新路三和段1050號",
    "phone": "03 4794384",
    "latitude": 24.850446002534248,
    "longitude": 121.17508199737496
  },
  {
    "id": 375,
    "nameZh": "高平派出所",
    "nameEn": "Gaoping Police Station",
    "address": "桃園市龍潭區中豐路高平段281號",
    "phone": "03 4717204",
    "latitude": 24.83581500011777,
    "longitude": 121.20698099986905
  },
  {
    "id": 376,
    "nameZh": "石門派出所",
    "nameEn": "Shimen Police Station",
    "address": "桃園市龍潭區文化路230號",
    "phone": "03 4712021",
    "latitude": 24.842710996132734,
    "longitude": 121.24126900106734
  },
  {
    "id": 377,
    "nameZh": "中興派出所",
    "nameEn": "Zhongxing Police Station",
    "address": "桃園市龍潭區武漢路45號",
    "phone": "03 4797497",
    "latitude": 24.872611994800497,
    "longitude": 121.23449900050718
  },
  {
    "id": 378,
    "nameZh": "龍潭派出所",
    "nameEn": "Longtan Police Station",
    "address": "桃園市龍潭區大昌路1段277號",
    "phone": "03 4792002",
    "latitude": 24.870272996056038,
    "longitude": 121.22044400013465
  },
  {
    "id": 379,
    "nameZh": "聖亭派出所",
    "nameEn": "Shengting Police Station",
    "address": "桃園市龍潭區干城路21號",
    "phone": "03 4891110",
    "latitude": 24.868603997867442,
    "longitude": 121.20755900422886
  },
  {
    "id": 380,
    "nameZh": "新竹縣政府警察局",
    "nameEn": "Hsinchu County Police Bureau",
    "address": "新竹縣竹北市光明六路12號",
    "phone": "03 5513523",
    "latitude": 24.826933999173733,
    "longitude": 121.01126300494188
  },
  {
    "id": 381,
    "nameZh": "竹東分局",
    "nameEn": "Jhudong Police Precinct",
    "address": "新竹縣竹東鎮康寧街93號",
    "phone": "03 5962081",
    "latitude": 24.737271002306574,
    "longitude": 121.08682699753756
  },
  {
    "id": 382,
    "nameZh": "竹東派出所",
    "nameEn": "Jhudong Police Station",
    "address": "新竹縣竹東鎮康寧街93號",
    "phone": "03 5962057",
    "latitude": 24.737271002306574,
    "longitude": 121.08682699753756
  },
  {
    "id": 383,
    "nameZh": "五峰分駐所",
    "nameEn": "Wufong Police Station",
    "address": "新竹縣五峰鄉大隘村6鄰96號",
    "phone": "03 5851029",
    "latitude": 24.631760997186376,
    "longitude": 121.11982099794866
  },
  {
    "id": 384,
    "nameZh": "羅山派出所",
    "nameEn": "Luoshan Police Station",
    "address": "新竹縣五峰鄉竹林村1鄰羅山20號",
    "phone": "03 5851214",
    "latitude": 24.624794183756666,
    "longitude": 121.14780967910934
  },
  {
    "id": 385,
    "nameZh": "茅圃派出所",
    "nameEn": "Maopu Police Station",
    "address": "新竹縣五峰鄉大隘村22鄰435號",
    "phone": "03 5851149",
    "latitude": 24.61584862911547,
    "longitude": 121.10306632985318
  },
  {
    "id": 386,
    "nameZh": "桃山派出所",
    "nameEn": "Taoshan Police Station",
    "address": "新竹縣五峰鄉桃山村2鄰桃山20號",
    "phone": "03 5856043",
    "latitude": 24.59651031357182,
    "longitude": 121.10889413430968
  },
  {
    "id": 387,
    "nameZh": "花園派出所",
    "nameEn": "Huayuan Police Station",
    "address": "新竹縣五峰鄉花園村5鄰93號",
    "phone": "03 5851147",
    "latitude": 24.64603699734503,
    "longitude": 121.1510979965073
  },
  {
    "id": 388,
    "nameZh": "寶山分駐所",
    "nameEn": "Baoshan Police Station",
    "address": "新竹縣寶山鄉雙溪村三峰路2段636號",
    "phone": "03 5204139",
    "latitude": 24.765427997426865,
    "longitude": 120.99085500103074
  },
  {
    "id": 389,
    "nameZh": "上坪派出所",
    "nameEn": "Shangping Police Station",
    "address": "新竹縣竹東鎮上坪里7鄰86號",
    "phone": "03 5961744",
    "latitude": 24.663932391376797,
    "longitude": 121.12053058709938
  },
  {
    "id": 390,
    "nameZh": "新城派出所",
    "nameEn": "Sincheng Police Station",
    "address": "新竹縣寶山鄉新城村寶新路2段658號",
    "phone": "03 5762353",
    "latitude": 24.732828001955376,
    "longitude": 120.96627499875545
  },
  {
    "id": 391,
    "nameZh": "楓橋派出所",
    "nameEn": "Fongciao Police Station",
    "address": "新竹縣寶山鄉寶山村新湖路1段415號",
    "phone": "03 5761140",
    "latitude": 24.733644001105866,
    "longitude": 121.02796099599358
  },
  {
    "id": 392,
    "nameZh": "富興派出所",
    "nameEn": "Fusing Police Station",
    "address": "新竹縣峨眉鄉富興村太平街4號",
    "phone": "03 5806584",
    "latitude": 24.68688499535847,
    "longitude": 120.98790199662132
  },
  {
    "id": 393,
    "nameZh": "二重埔派出所",
    "nameEn": "Erchongpu Police Station",
    "address": "新竹縣竹東鎮中興路3段95號",
    "phone": "03 5823504",
    "latitude": 24.766120998120705,
    "longitude": 121.05695599899924
  },
  {
    "id": 394,
    "nameZh": "北埔分駐所",
    "nameEn": "Beipu Police Station",
    "address": "新竹縣北埔鄉南興村南興街70號",
    "phone": "03 5802214",
    "latitude": 24.698968997096287,
    "longitude": 121.05707899878938
  },
  {
    "id": 395,
    "nameZh": "峨眉分駐所",
    "nameEn": "Emei Police Station",
    "address": "新竹縣峨眉鄉峨眉村峨嵋街1號",
    "phone": "03 5800344",
    "latitude": 24.688150768021078,
    "longitude": 121.02163052713871
  },
  {
    "id": 396,
    "nameZh": "下公館派出所",
    "nameEn": "Siagongguan Police Station",
    "address": "新竹縣竹東鎮中豐路1段88號",
    "phone": "03 5948392",
    "latitude": 24.723453995725468,
    "longitude": 121.0986479995164
  },
  {
    "id": 397,
    "nameZh": "竹北分局",
    "nameEn": "Jhubei Police Precinct",
    "address": "新竹縣竹北市博愛街16號",
    "phone": "03 5552029",
    "latitude": 24.829045647242797,
    "longitude": 121.00345372688473
  },
  {
    "id": 398,
    "nameZh": "豐田派出所",
    "nameEn": "Fongtian Police Station",
    "address": "新竹縣竹北市中正西路1550號",
    "phone": "03 5564768",
    "latitude": 24.842734998077443,
    "longitude": 120.96428999976266
  },
  {
    "id": 399,
    "nameZh": "鳳岡派出所",
    "nameEn": "Fonggang Police Station",
    "address": "新竹縣竹北市鳳岡路3段238號",
    "phone": "03 5561769",
    "latitude": 24.860989999070917,
    "longitude": 120.96350600129153
  },
  {
    "id": 400,
    "nameZh": "六家派出所",
    "nameEn": "Lioujia Police Station",
    "address": "新竹縣竹北市自強北路81號",
    "phone": "03 6580308",
    "latitude": 24.82237099867518,
    "longitude": 121.0299999996005
  },
  {
    "id": 401,
    "nameZh": "竹北派出所",
    "nameEn": "Jhubei Police Station",
    "address": "新竹縣竹北市中華路383號",
    "phone": "03 5552031",
    "latitude": 24.83844600276529,
    "longitude": 121.00499600370442
  },
  {
    "id": 402,
    "nameZh": "三民派出所",
    "nameEn": "Sanmin Police Station",
    "address": "新竹縣竹北市三民路345號",
    "phone": "03 5556270",
    "latitude": 24.833445001580884,
    "longitude": 121.01138299952854
  },
  {
    "id": 403,
    "nameZh": "高鐵派出所",
    "nameEn": "Gaotie Police Station",
    "address": "新竹縣竹北市隘口二路175號",
    "phone": "03 6578272",
    "latitude": 24.805023997578044,
    "longitude": 121.03825000353577
  },
  {
    "id": 404,
    "nameZh": "新湖分局",
    "nameEn": "Xinhu Police Precinct",
    "address": "新竹縣湖口鄉中正路2段26號",
    "phone": "03 5902615",
    "latitude": 24.896271996423586,
    "longitude": 121.04801299730282
  },
  {
    "id": 405,
    "nameZh": "山崎派出所",
    "nameEn": "Shanci Police Station",
    "address": "新竹縣新豐鄉松林街8號",
    "phone": "03 5592736",
    "latitude": 24.868164148824953,
    "longitude": 120.99334994513141
  },
  {
    "id": 406,
    "nameZh": "新豐分駐所",
    "nameEn": "Sinfong Police Station",
    "address": "新竹縣新豐鄉重興村建與路2段788號",
    "phone": "03 5594052",
    "latitude": 24.901070995953912,
    "longitude": 120.98718899797962
  },
  {
    "id": 407,
    "nameZh": "後湖派出所",
    "nameEn": "Houhu Police Station",
    "address": "新竹縣新豐鄉後湖村6鄰後湖子115號",
    "phone": "03 5680164",
    "latitude": 24.931899003733207,
    "longitude": 121.00932400375392
  },
  {
    "id": 408,
    "nameZh": "湖口派出所",
    "nameEn": "Hukou Police Station",
    "address": "新竹縣湖口鄉中正路2段26號",
    "phone": "03 5997037",
    "latitude": 24.896271996423586,
    "longitude": 121.04801299730282
  },
  {
    "id": 409,
    "nameZh": "湖鏡派出所",
    "nameEn": "Hujing Police Station",
    "address": "新竹縣湖口鄉湖口村八德路2段142巷11號",
    "phone": "03 5690646",
    "latitude": 24.87800800058599,
    "longitude": 121.05879199986086
  },
  {
    "id": 410,
    "nameZh": "新工派出所",
    "nameEn": "Singong Police Station",
    "address": "新竹縣湖口鄉鳳凰村文化路172號",
    "phone": "03 5981561",
    "latitude": 24.87156599822236,
    "longitude": 121.01666399589337
  },
  {
    "id": 411,
    "nameZh": "橫山分局",
    "nameEn": "Hengshan Police Precinct",
    "address": "新竹縣橫山鄉新興村新興街103號",
    "phone": "03 5931004",
    "latitude": 24.716284001059343,
    "longitude": 121.14153500408817
  },
  {
    "id": 412,
    "nameZh": "橫山派出所",
    "nameEn": "Hengshan Police Station",
    "address": "新竹縣橫山鄉新興村新興街103號",
    "phone": "03 5931002",
    "latitude": 24.716284001059343,
    "longitude": 121.14153500408817
  },
  {
    "id": 413,
    "nameZh": "芎林分駐所",
    "nameEn": "Cyonglin Police Station",
    "address": "新竹縣芎林鄉文山路349號",
    "phone": "03 5924572",
    "latitude": 24.774901998362306,
    "longitude": 121.08100799541045
  },
  {
    "id": 414,
    "nameZh": "秀湖派出所",
    "nameEn": "Siouhu Police Station",
    "address": "新竹縣芎林鄉秀湖村五和街5號",
    "phone": "03 5932812",
    "latitude": 24.734095997039613,
    "longitude": 121.1170069997453
  },
  {
    "id": 415,
    "nameZh": "新樂派出所",
    "nameEn": "Sinle Police Station",
    "address": "新竹縣尖石鄉新樂村1鄰水田30號",
    "phone": "03 5841676",
    "latitude": 24.732450998067023,
    "longitude": 121.25129499612588
  },
  {
    "id": 416,
    "nameZh": "橫村派出所",
    "nameEn": "Hengcun Police Station",
    "address": "新竹縣橫山鄉橫山村1鄰治安街1號",
    "phone": "03 5934387",
    "latitude": 24.717652000603444,
    "longitude": 121.11780800394878
  },
  {
    "id": 417,
    "nameZh": "玉峰派出所",
    "nameEn": "Yufong Police Station",
    "address": "新竹縣尖石鄉玉峰村5鄰玉峰55號",
    "phone": "03 5847202",
    "latitude": 24.660076070313224,
    "longitude": 121.3008087940028
  },
  {
    "id": 418,
    "nameZh": "宇老派出所",
    "nameEn": "Yulao Police Station",
    "address": "新竹縣尖石鄉玉峰村1鄰宇老1號",
    "phone": "03 5847238",
    "latitude": 24.667749998788086,
    "longitude": 121.28231799560648
  },
  {
    "id": 419,
    "nameZh": "秀巒派出所",
    "nameEn": "Siouluan Police Station",
    "address": "新竹縣尖石鄉秀巒村4鄰控溪20號",
    "phone": "03 5847523",
    "latitude": 24.61794399926549,
    "longitude": 121.28545299965448
  },
  {
    "id": 420,
    "nameZh": "內灣派出所",
    "nameEn": "Neiwan Police Station",
    "address": "新竹縣橫山鄉內灣村2鄰中山街二段8號",
    "phone": "03 5849164",
    "latitude": 24.705974000097314,
    "longitude": 121.17565900267529
  },
  {
    "id": 421,
    "nameZh": "那羅派出所",
    "nameEn": "Naluo Police Station",
    "address": "新竹縣尖石鄉錦屏村8鄰那羅41號",
    "phone": "03 5841682",
    "latitude": 24.680164001288063,
    "longitude": 121.24221299761254
  },
  {
    "id": 422,
    "nameZh": "沙坑派出所",
    "nameEn": "Shakeng Police Station",
    "address": "新竹縣橫山鄉沙坑村6鄰中豐路3段10巷1號",
    "phone": "03 5811054",
    "latitude": 24.736722999166947,
    "longitude": 121.16281200355627
  },
  {
    "id": 423,
    "nameZh": "梅花派出所",
    "nameEn": "Meihua Police Station",
    "address": "新竹縣尖石鄉梅花村1鄰梅花26號",
    "phone": "03 5841681",
    "latitude": 24.67792099544499,
    "longitude": 121.20825299899373
  },
  {
    "id": 424,
    "nameZh": "尖石分駐所",
    "nameEn": "Jianshih Police Station",
    "address": "新竹縣尖石鄉嘉樂村2鄰麥樹仁41號",
    "phone": "03 5841144",
    "latitude": 24.70540300264846,
    "longitude": 121.20094600073185
  },
  {
    "id": 425,
    "nameZh": "泰崗派出所",
    "nameEn": "Taigang Police Station",
    "address": "新竹縣尖石鄉秀巒村7鄰泰岡88號",
    "phone": "03 5847322",
    "latitude": 24.611677995596125,
    "longitude": 121.29628000348578
  },
  {
    "id": 426,
    "nameZh": "新埔分局",
    "nameEn": "Sinpu Police Precinct",
    "address": "新竹縣新埔鎮中正路475號",
    "phone": "03 5882004",
    "latitude": 24.827575996036913,
    "longitude": 121.07432199605027
  },
  {
    "id": 427,
    "nameZh": "新埔派出所",
    "nameEn": "Sinpu Police Station",
    "address": "新竹縣新埔鎮中正路475號",
    "phone": "03 5882034",
    "latitude": 24.827575996036913,
    "longitude": 121.07432199605027
  },
  {
    "id": 428,
    "nameZh": "錦山派出所",
    "nameEn": "Jinshan Police Station",
    "address": "新竹縣關西鎮錦山里2鄰21號",
    "phone": "03 5478174",
    "latitude": 24.772023000520388,
    "longitude": 121.23179300371477
  },
  {
    "id": 429,
    "nameZh": "玉山派出所",
    "nameEn": "Yushan Police Station",
    "address": "新竹縣關西鎮錦山里2鄰21號",
    "phone": "03 5478174",
    "latitude": 24.772023000520388,
    "longitude": 121.23179300371477
  },
  {
    "id": 430,
    "nameZh": "東安派出所",
    "nameEn": "Dong-an Police Station",
    "address": "新竹縣關西鎮中山東路100號",
    "phone": "03 5872301",
    "latitude": 24.790130003356975,
    "longitude": 121.18229400104687
  },
  {
    "id": 431,
    "nameZh": "南華派出所",
    "nameEn": "Nanhua  police  station",
    "address": "新竹縣關西鎮中山東路100號",
    "phone": "03 5872301",
    "latitude": 24.790130003356975,
    "longitude": 121.18229400104687
  },
  {
    "id": 432,
    "nameZh": "關西分駐所",
    "nameEn": "Guansi Police Station",
    "address": "新竹縣關西鎮中央街2號",
    "phone": "03 5872007",
    "latitude": 24.792241996766325,
    "longitude": 121.17263499736124
  },
  {
    "id": 433,
    "nameZh": "褒忠派出所",
    "nameEn": "Baojhong Police Station",
    "address": "新竹縣新埔鎮下寮里12鄰義民路3段329號",
    "phone": "03 5882094",
    "latitude": 24.843160002439298,
    "longitude": 121.03592599715532
  },
  {
    "id": 434,
    "nameZh": "寶石派出所",
    "nameEn": "Baoshih Police Station",
    "address": "新竹縣新埔鎮寶石里文德路2段599號",
    "phone": "03 5882064",
    "latitude": 24.816418996129446,
    "longitude": 121.0776919999742
  },
  {
    "id": 435,
    "nameZh": "照門派出所",
    "nameEn": "Jhaomen Police Station",
    "address": "新竹縣新埔鎮照門里9鄰照鏡20-20號",
    "phone": "03 5899194",
    "latitude": 24.84672599545006,
    "longitude": 121.11565000039805
  },
  {
    "id": 436,
    "nameZh": "石光派出所",
    "nameEn": "Shihguang Police Station",
    "address": "新竹縣關西鎮石光里9鄰392號",
    "phone": "03 5868060",
    "latitude": 24.813970002160033,
    "longitude": 121.12843499751212
  },
  {
    "id": 437,
    "nameZh": "坪林派出所",
    "nameEn": "Pinglin Police Station",
    "address": "新竹縣關西鎮石光里9鄰392號",
    "phone": "03 5868060",
    "latitude": 24.813970002160033,
    "longitude": 121.12843499751212
  },
  {
    "id": 438,
    "nameZh": "新竹市警察局",
    "nameEn": "Hsinchu City Police Bureau",
    "address": "新竹市北區中山路1號",
    "phone": "03 5249234",
    "latitude": 24.806373995526034,
    "longitude": 120.9685460032037
  },
  {
    "id": 439,
    "nameZh": "第一分局",
    "nameEn": "First Police Precinct",
    "address": "新竹市北區竹光路290號",
    "phone": "03 5222725",
    "latitude": 24.810304999617205,
    "longitude": 120.95549399617657
  },
  {
    "id": 440,
    "nameZh": "湳雅派出所",
    "nameEn": "Nanya Police Station",
    "address": "新竹市北區湳雅街116號",
    "phone": "03 5356710",
    "latitude": 24.819610002853114,
    "longitude": 120.97300500178666
  },
  {
    "id": 441,
    "nameZh": "樹林頭派出所",
    "nameEn": "Shulintou Police Station",
    "address": "新竹市北區竹光路290號",
    "phone": "03 5267652",
    "latitude": 24.810304999617205,
    "longitude": 120.95549399617657
  },
  {
    "id": 442,
    "nameZh": "南寮派出所",
    "nameEn": "Nanliao Police Station",
    "address": "新竹市北區東大路3段541號",
    "phone": "03 5362334",
    "latitude": 24.840401996722964,
    "longitude": 120.93745399661545
  },
  {
    "id": 443,
    "nameZh": "北門派出所",
    "nameEn": "Beimen Police Station",
    "address": "新竹市北區北大路218號",
    "phone": "03 5222223",
    "latitude": 24.80802600005457,
    "longitude": 120.96505899912015
  },
  {
    "id": 444,
    "nameZh": "西門派出所",
    "nameEn": "Ximen Police Station",
    "address": "新竹市北區中山路300號",
    "phone": "03 5222452",
    "latitude": 24.801974000296408,
    "longitude": 120.96121099795586
  },
  {
    "id": 445,
    "nameZh": "第二分局",
    "nameEn": "Second Police Precinct",
    "address": "新竹市東區光復路2段798號",
    "phone": "03 5728750",
    "latitude": 24.80149300280597,
    "longitude": 120.98658700338001
  },
  {
    "id": 446,
    "nameZh": "文華派出所",
    "nameEn": "Wenhua Police Station",
    "address": "新竹市東區經國路1段488號",
    "phone": "03 5332120",
    "latitude": 24.814683996273224,
    "longitude": 120.9771170039154
  },
  {
    "id": 447,
    "nameZh": "關東橋派出所",
    "nameEn": "Guandongqiao Police Station",
    "address": "新竹市東區介壽路200號",
    "phone": "03 5775758",
    "latitude": 24.77924899912058,
    "longitude": 121.0190669960571
  },
  {
    "id": 448,
    "nameZh": "埔頂派出所",
    "nameEn": "Puding Police Station",
    "address": "新竹市東區光復路1段568號",
    "phone": "03 5773999",
    "latitude": 24.789030998029233,
    "longitude": 121.00786800366089
  },
  {
    "id": 449,
    "nameZh": "東勢派出所",
    "nameEn": "Dongshih Police Station",
    "address": "新竹市東區光復路2段798號",
    "phone": "03 5728758",
    "latitude": 24.80149300280597,
    "longitude": 120.98658700338001
  },
  {
    "id": 450,
    "nameZh": "東門派出所",
    "nameEn": "Dongmen Police Station",
    "address": "新竹市東區東門街87號",
    "phone": "03 5222607",
    "latitude": 24.804121997058726,
    "longitude": 120.96982000076306
  },
  {
    "id": 451,
    "nameZh": "第三分局",
    "nameEn": "Third Police Precinct",
    "address": "新竹市香山區牛埔路432號",
    "phone": "03 5380040",
    "latitude": 24.79762499826218,
    "longitude": 120.94262300257584
  },
  {
    "id": 452,
    "nameZh": "中華派出所",
    "nameEn": "Zhonghua Police Station",
    "address": "新竹市香山區大庄路105號",
    "phone": "03 5302487",
    "latitude": 24.79161599661041,
    "longitude": 120.92626000460751
  },
  {
    "id": 453,
    "nameZh": "青草湖派出所",
    "nameEn": "Jingcaohu Police Station",
    "address": "新竹市東區明湖路666號",
    "phone": "03 5201563",
    "latitude": 24.774051998213842,
    "longitude": 120.9664009996124
  },
  {
    "id": 454,
    "nameZh": "朝山派出所",
    "nameEn": "Zhaoshan Police Station",
    "address": "新竹市香山區中華路5段690號",
    "phone": "03 5373165",
    "latitude": 24.766244996554875,
    "longitude": 120.91469300197305
  },
  {
    "id": 455,
    "nameZh": "香山派出所",
    "nameEn": "Siangshan Police Station",
    "address": "新竹市香山區牛埔路432號",
    "phone": "03 5386348",
    "latitude": 24.79762499826218,
    "longitude": 120.94262300257584
  },